{
	"one_table": [
		{
			"id": "1",
			"number": "7",
			"percentage": "25",
			"class": "茶馆",
			"list":[
				{"range":"3","name":"槚庐.茶空间Justtie","lon":"121.5248588","lat":"31.30082454","flow":"16","consume":"128","class":"茶馆","id":"1010300001"},
				{"range":"3","name":"子羽茶廷","lon":"121.5045518","lat":"31.30662454","flow":"52","consume":"124","class":"茶馆","id":"1010300002"},
				{"range":"3","name":"茗韵茶社","lon":"121.5167248","lat":"31.29272454","flow":"29","consume":"89","class":"茶馆","id":"1010300003"},
				{"range":"3","name":"黍糖茶屋","lon":"121.5140688","lat":"31.30267154","flow":"37","consume":"45","class":"茶馆","id":"1010300004"},
				{"range":"3","name":"雅趣·中和堂茶馆","lon":"121.5211828","lat":"31.29643354","flow":"624","consume":"84","class":"茶馆","id":"1010300005"},
				{"range":"3","name":"大红袍茶室","lon":"121.5151318","lat":"31.29290854","flow":"19","consume":"-","class":"茶馆","id":"1010300006"},
				{"range":"3","name":"茗仕茶楼","lon":"121.5165008","lat":"31.29894554","flow":"188","consume":"86","class":"茶馆","id":"1010300007"},
				{"range":"3","name":"中茶普洱·梦中茶","lon":"121.5138378","lat":"31.29574754","flow":"28","consume":"78","class":"茶馆","id":"1010300008"},
				{"range":"3","name":"天茗阁清茶馆","lon":"121.5148428","lat":"31.30931854","flow":"80","consume":"95","class":"茶馆","id":"1010300009"},
				{"range":"3","name":"子悦集禅意生活美学空间","lon":"121.5058088","lat":"31.30637654","flow":"34","consume":"121","class":"茶馆","id":"1010300010"},
				{"range":"3","name":"四云奶盖贡茶","lon":"121.5116048","lat":"31.30356954","flow":"3651","consume":"18","class":"茶馆","id":"1010300011"},
				{"range":"3","name":"茶音慧谷","lon":"121.5014878","lat":"31.31832554","flow":"12","consume":"-","class":"茶馆","id":"1010300012"},
				{"range":"3","name":"古逸阁","lon":"121.4890888","lat":"31.31015854","flow":"84","consume":"62","class":"茶馆","id":"1010300013"},
				{"range":"3","name":"一壶春茶叶茶具商行","lon":"121.5130348","lat":"31.30493654","flow":"32","consume":"-","class":"茶馆","id":"1010300014"},
				{"range":"3","name":"三得精舍大益茶","lon":"121.5168148","lat":"31.29379654","flow":"34","consume":"49","class":"茶馆","id":"1010300015"},
				{"range":"3","name":"自助茶馆","lon":"121.5100998","lat":"31.30287754","flow":"7","consume":"-","class":"茶馆","id":"1010300016"},
				{"range":"3","name":"清友閑風","lon":"121.5138378","lat":"31.29574754","flow":"7","consume":"-","class":"茶馆","id":"1010300017"},
				{"range":"3","name":"芝田堂茶文化馆","lon":"121.5031848","lat":"31.30505954","flow":"21","consume":"91","class":"茶馆","id":"1010300018"},
				{"range":"3","name":"颐丰茶楼","lon":"121.4863308","lat":"31.30730954","flow":"1","consume":"-","class":"茶馆","id":"1010300019"},
				{"range":"3","name":"三味茶斋","lon":"121.5329408","lat":"31.30383754","flow":"6","consume":"-","class":"茶馆","id":"1010300020"},
				{"range":"3","name":"茶品人生茶馆","lon":"121.4876738","lat":"31.30630854","flow":"1","consume":"-","class":"茶馆","id":"1010300021"},
				{"range":"3","name":"一壶春生煎","lon":"121.5021518","lat":"31.29524454","flow":"7","consume":"-","class":"茶馆","id":"1010300022"},
				{"range":"3","name":"馨峰茶庄","lon":"121.5212678","lat":"31.31676954","flow":"12","consume":"-","class":"茶馆","id":"1010300023"},
				{"range":"3","name":"三族茶汇","lon":"121.5137018","lat":"31.30437654","flow":"2","consume":"-","class":"茶馆","id":"1010300024"},
				{"range":"3","name":"锦园茶庄","lon":"121.5160298","lat":"31.30037354","flow":"3","consume":"-","class":"茶馆","id":"1010300025"},
				{"range":"3","name":"慈茗阁茶业","lon":"121.4829208","lat":"31.30590454","flow":"4","consume":"-","class":"茶馆","id":"1010300026"},
				{"range":"3","name":"乌蒙韵红茶馆","lon":"121.5153308","lat":"31.29407154","flow":"10","consume":"56","class":"茶馆","id":"1010300027"},
				{"range":"3","name":"逸品茶庄","lon":"121.5172778","lat":"31.30744554","flow":"1","consume":"-","class":"茶馆","id":"1010300028"},
				{"range":"3","name":"天天唱吧茶苑","lon":"121.5120258","lat":"31.28342054","flow":"1","consume":"-","class":"茶馆","id":"1010300029"},
				{"range":"3","name":"尚品嘉","lon":"121.5060178","lat":"31.30617854","flow":"2","consume":"-","class":"茶馆","id":"1010300030"},
				{"range":"3","name":"黑茶坊","lon":"121.5175068","lat":"31.31822254","flow":"10","consume":"-","class":"茶馆","id":"1010300031"},
				{"range":"3","name":"乾宸茶室","lon":"121.5289378","lat":"31.30124354","flow":"10","consume":"-","class":"茶馆","id":"1010300032"},
				{"range":"3","name":"束氏茶道","lon":"121.5089698","lat":"31.29063654","flow":"10","consume":"-","class":"茶馆","id":"1010300033"},
				{"range":"3","name":"玉茶坊","lon":"121.5159688","lat":"31.29665254","flow":"10","consume":"-","class":"茶馆","id":"1010300034"},
				{"range":"3","name":"茗月轩茶馆","lon":"121.5161178","lat":"31.29690954","flow":"10","consume":"-","class":"茶馆","id":"1010300035"},
				{"range":"3","name":"沏茶坊","lon":"121.4981458","lat":"31.29704854","flow":"10","consume":"-","class":"茶馆","id":"1010300036"},
				{"range":"3","name":"杨浦区五角场街道老年茶室","lon":"121.4840058","lat":"31.30753254","flow":"10","consume":"-","class":"茶馆","id":"1010300037"},
				{"range":"3","name":"复茗茶庄","lon":"121.5101408","lat":"31.31298654","flow":"10","consume":"-","class":"茶馆","id":"1010300038"},
				{"range":"3","name":"轩和茶庄","lon":"121.5264858","lat":"31.32065054","flow":"10","consume":"-","class":"茶馆","id":"1010300039"},
				{"range":"3","name":"槚庐.茶空间Justtie","lon":"121.5248588","lat":"31.30082454","flow":"16","consume":"128","class":"茶馆","id":"1010300040"},
				{"range":"3","name":"瓦酷茶楼暂停营业","lon":"121.5101408","lat":"31.31298654","flow":"202","consume":"47","class":"茶馆","id":"1010300041"},
				{"range":"3","name":"福鼎星白茶会馆","lon":"121.4825968","lat":"31.30121754","flow":"12","consume":"-","class":"茶馆","id":"1010300042"},
				{"range":"3","name":"先生的茶馆","lon":"121.4837798","lat":"31.29787354","flow":"1","consume":"-","class":"茶馆","id":"1010300043"},
				{"range":"3","name":"虞-泓益茶道","lon":"121.4861848","lat":"31.29060954","flow":"20","consume":"72","class":"茶馆","id":"1010300044"},
				{"range":"3","name":"合和昌茶室","lon":"121.4961158","lat":"31.29263454","flow":"10","consume":"-","class":"茶馆","id":"1010300045"},
				{"range":"5","name":"艺天茶约","lon":"121.5404318","lat":"31.27822654","flow":"68","consume":"71","class":"茶馆","id":"1010500001"},
				{"range":"5","name":"六艺茶馆","lon":"121.5275548","lat":"31.27008954","flow":"212","consume":"75","class":"茶馆","id":"1010500002"},
				{"range":"5","name":"六艺茶馆","lon":"121.5161978","lat":"31.27049854","flow":"67","consume":"66","class":"茶馆","id":"1010500003"},
				{"range":"5","name":"聖鴻齋","lon":"121.5413588","lat":"31.32298954","flow":"18","consume":"31","class":"茶馆","id":"1010500004"},
				{"range":"5","name":"嘿饮","lon":"121.5370478","lat":"31.26836354","flow":"2","consume":"-","class":"茶馆","id":"1010500005"},
				{"range":"5","name":"车马炮茶坊","lon":"121.5244618","lat":"31.28063754","flow":"41","consume":"37","class":"茶馆","id":"1010500006"},
				{"range":"5","name":"小罐茶","lon":"121.5018218","lat":"31.27156554","flow":"7","consume":"-","class":"茶馆","id":"1010500007"},
				{"range":"5","name":"花园茶庄","lon":"121.5238648","lat":"31.28058654","flow":"9","consume":"-","class":"茶馆","id":"1010500008"},
				{"range":"5","name":"佳依茶坊","lon":"121.5343178","lat":"31.32016454","flow":"3","consume":"-","class":"茶馆","id":"1010500009"},
				{"range":"5","name":"一隅茶堂","lon":"121.5214868","lat":"31.26798354","flow":"1","consume":"-","class":"茶馆","id":"1010500010"},
				{"range":"5","name":"茶屋","lon":"121.5436348","lat":"31.31174754","flow":"1","consume":"-","class":"茶馆","id":"1010500011"},
				{"range":"5","name":"汇山茶室","lon":"121.5350298","lat":"31.26935954","flow":"1","consume":"-","class":"茶馆","id":"1010500012"},
				{"range":"5","name":"鼎红音乐茶坊","lon":"121.5357378","lat":"31.28118554","flow":"1","consume":"-","class":"茶馆","id":"1010500013"},
				{"range":"5","name":"黑茶缘","lon":"121.5018218","lat":"31.27156554","flow":"7","consume":"-","class":"茶馆","id":"1010500014"},
				{"range":"5","name":"九峰山茶座","lon":"121.5343478","lat":"31.31969454","flow":"1","consume":"-","class":"茶馆","id":"1010500015"},
				{"range":"5","name":"金沙山房","lon":"121.5395998","lat":"31.27178654","flow":"2","consume":"-","class":"茶馆","id":"1010500016"},
				{"range":"5","name":"憶品阁","lon":"121.5399698","lat":"31.31426154","flow":"1","consume":"-","class":"茶馆","id":"1010500017"},
				{"range":"5","name":"小绍兴茶叶专卖店","lon":"121.5133878","lat":"31.27287254","flow":"2","consume":"-","class":"茶馆","id":"1010500018"},
				{"range":"5","name":"沁馨茶庄","lon":"121.5363398","lat":"31.32077854","flow":"10","consume":"-","class":"茶馆","id":"1010500019"},
				{"range":"5","name":"怡清源安化黑茶","lon":"121.5217248","lat":"31.26836854","flow":"2","consume":"-","class":"茶馆","id":"1010500020"},
				{"range":"5","name":"绿波餐厅茶室","lon":"121.5316558","lat":"31.28320354","flow":"10","consume":"-","class":"茶馆","id":"1010500021"},
				{"range":"5","name":"天地汇茶楼","lon":"121.5115098","lat":"31.33769954","flow":"10","consume":"-","class":"茶馆","id":"1010500022"},
				{"range":"5","name":"宏业茶道","lon":"121.5101648","lat":"31.26673854","flow":"10","consume":"-","class":"茶馆","id":"1010500023"},
				{"range":"5","name":"caffeliscio","lon":"121.5140838","lat":"31.27426354","flow":"10","consume":"-","class":"茶馆","id":"1010500024"},
				{"range":"5","name":"雲濟堂紫砂茶艺馆","lon":"121.5018218","lat":"31.27156554","flow":"10","consume":"-","class":"茶馆","id":"1010500025"},
				{"range":"5","name":"娱乐茶室","lon":"121.5186988","lat":"31.26210054","flow":"10","consume":"-","class":"茶馆","id":"1010500026"},
				{"range":"5","name":"阿亮茶庄","lon":"121.5412908","lat":"31.27563954","flow":"10","consume":"-","class":"茶馆","id":"1010500027"},
				{"range":"5","name":"梓云居","lon":"121.4829158","lat":"31.29229354","flow":"26","consume":"120","class":"茶馆","id":"1010500028"},
				{"range":"5","name":"卧云茶叙","lon":"121.4897418","lat":"31.27115554","flow":"375","consume":"145","class":"茶馆","id":"1010500029"},
				{"range":"5","name":"得和茶馆","lon":"121.4773438","lat":"31.27406254","flow":"429","consume":"123","class":"茶馆","id":"1010500030"},
				{"range":"5","name":"祥德茶馆","lon":"121.4887488","lat":"31.27365154","flow":"77","consume":"57","class":"茶馆","id":"1010500031"},
				{"range":"5","name":"珑润会茶坊","lon":"121.4808968","lat":"31.29489054","flow":"325","consume":"88","class":"茶馆","id":"1010500032"},
				{"range":"5","name":"广缘茶坊","lon":"121.4760718","lat":"31.28832054","flow":"8","consume":"-","class":"茶馆","id":"1010500033"},
				{"range":"5","name":"汪裕泰茶社","lon":"121.5047938","lat":"31.26400354","flow":"27","consume":"87","class":"茶馆","id":"1010500034"},
				{"range":"5","name":"源溪茶馆","lon":"121.4840718","lat":"31.26863354","flow":"26","consume":"58","class":"茶馆","id":"1010500035"},
				{"range":"5","name":"闲思阁茶艺","lon":"121.4840718","lat":"31.26863354","flow":"2","consume":"-","class":"茶馆","id":"1010500036"},
				{"range":"5","name":"知秋茶乡","lon":"121.5018218","lat":"31.27156554","flow":"1","consume":"-","class":"茶馆","id":"1010500037"},
				{"range":"5","name":"天统茶行","lon":"121.5018218","lat":"31.27156554","flow":"1","consume":"-","class":"茶馆","id":"1010500038"},
				{"range":"5","name":"文苑茶庄","lon":"121.4789378","lat":"31.28447454","flow":"1","consume":"-","class":"茶馆","id":"1010500039"},
				{"range":"5","name":"葫芦茶坊","lon":"121.4683288","lat":"31.30257754","flow":"4","consume":"-","class":"茶馆","id":"1010500040"},
				{"range":"5","name":"仙茶缘","lon":"121.4883708","lat":"31.28546154","flow":"10","consume":"-","class":"茶馆","id":"1010500041"},
				{"range":"5","name":"三里香茶楼","lon":"121.4773048","lat":"31.31069354","flow":"10","consume":"-","class":"茶馆","id":"1010500042"},
				{"range":"5","name":"大众茶室","lon":"121.4700578","lat":"31.30288354","flow":"10","consume":"-","class":"茶馆","id":"1010500043"},
				{"range":"5","name":"华哥茶档","lon":"121.4933518","lat":"31.26683454","flow":"10","consume":"-","class":"茶馆","id":"1010500044"},
				{"range":"5","name":"大红袍茶会所暂停营业","lon":"121.4919678","lat":"31.27254754","flow":"4","consume":"-","class":"茶馆","id":"1010500045"}
			]
		}, {
			"id": "2",
			"number": "20",
			"percentage": "75",
			"class": "酒吧",
			"list": [
				{"range":"3","name":"LAVA酒吧","lon":"121.5106138","lat":"31.30474654","flow":"204","consume":"176","class":"酒吧","id":"1020300001"},
				{"range":"3","name":"缪斯酒吧","lon":"121.5100338","lat":"31.30579954","flow":"106","consume":"134","class":"酒吧","id":"1020300002"},
				{"range":"3","name":"FEELINGCLUB酒吧","lon":"121.5088798","lat":"31.30559954","flow":"32","consume":"606","class":"酒吧","id":"1020300003"},
				{"range":"3","name":"NMD精酿酒吧&桌游","lon":"121.5035028","lat":"31.30525554","flow":"138","consume":"62","class":"酒吧","id":"1020300004"},
				{"range":"3","name":"Helens","lon":"121.5159688","lat":"31.29665254","flow":"76","consume":"92","class":"酒吧","id":"1020300005"},
				{"range":"3","name":"M-3PUB","lon":"121.5058398","lat":"31.30639754","flow":"511","consume":"93","class":"酒吧","id":"1020300006"},
				{"range":"3","name":"MT-CLUB","lon":"121.5107828","lat":"31.30501354","flow":"30","consume":"-","class":"酒吧","id":"1020300007"},
				{"range":"3","name":"心路bar","lon":"121.5049308","lat":"31.30619754","flow":"49","consume":"70","class":"酒吧","id":"1020300008"},
				{"range":"3","name":"Eleven酒吧","lon":"121.5103068","lat":"31.30807854","flow":"206","consume":"92","class":"酒吧","id":"1020300009"},
				{"range":"3","name":"BrewBear精酿啤酒屋","lon":"121.5059478","lat":"31.30616754","flow":"196","consume":"76","class":"酒吧","id":"1020300010"},
				{"range":"3","name":"PropagandaClub","lon":"121.5039788","lat":"31.29928854","flow":"513","consume":"211","class":"酒吧","id":"1020300011"},
				{"range":"3","name":"LeoBar","lon":"121.5103068","lat":"31.30807854","flow":"46","consume":"91","class":"酒吧","id":"1020300012"},
				{"range":"3","name":"Helens","lon":"121.4899458","lat":"31.30327254","flow":"576","consume":"68","class":"酒吧","id":"1020300013"},
				{"range":"3","name":"西界","lon":"121.5042158","lat":"31.30572554","flow":"564","consume":"122","class":"酒吧","id":"1020300014"},
				{"range":"3","name":"现场酒吧LIVEBAR","lon":"121.5208588","lat":"31.29604854","flow":"187","consume":"84","class":"酒吧","id":"1020300015"},
				{"range":"3","name":"潘多拉酒吧","lon":"121.5088798","lat":"31.30559954","flow":"2","consume":"-","class":"酒吧","id":"1020300016"},
				{"range":"3","name":"NEOBAR","lon":"121.5039788","lat":"31.29928854","flow":"83","consume":"53","class":"酒吧","id":"1020300017"},
				{"range":"3","name":"ppg时尚夜店","lon":"121.5106138","lat":"31.30474654","flow":"6","consume":"-","class":"酒吧","id":"1020300018"},
				{"range":"3","name":"菲比酒吧","lon":"121.5095908","lat":"31.30341854","flow":"3","consume":"-","class":"酒吧","id":"1020300019"},
				{"range":"3","name":"夜魅酒吧","lon":"121.5092078","lat":"31.30528354","flow":"68","consume":"271","class":"酒吧","id":"1020300020"},
				{"range":"3","name":"CRAFTBEER","lon":"121.5059478","lat":"31.30616754","flow":"24","consume":"49","class":"酒吧","id":"1020300021"},
				{"range":"3","name":"live酒吧","lon":"121.5109218","lat":"31.30386554","flow":"3","consume":"-","class":"酒吧","id":"1020300022"},
				{"range":"3","name":"兰桂坊酒吧","lon":"121.5092078","lat":"31.30528354","flow":"10","consume":"-","class":"酒吧","id":"1020300023"},
				{"range":"3","name":"coco酒吧","lon":"121.5106138","lat":"31.30474654","flow":"8","consume":"-","class":"酒吧","id":"1020300024"},
				{"range":"3","name":"PaPaPub","lon":"121.5053438","lat":"31.30358554","flow":"36","consume":"56","class":"酒吧","id":"1020300025"},
				{"range":"3","name":"菲林酒吧","lon":"121.5096198","lat":"31.30337654","flow":"5","consume":"-","class":"酒吧","id":"1020300026"},
				{"range":"3","name":"bUbblECLUB","lon":"121.4859938","lat":"31.29758554","flow":"8","consume":"-","class":"酒吧","id":"1020300027"},
				{"range":"3","name":"草莓酒吧","lon":"121.5248588","lat":"31.30082454","flow":"26","consume":"-","class":"酒吧","id":"1020300028"},
				{"range":"3","name":"vertigo","lon":"121.4952898","lat":"31.30375554","flow":"53","consume":"64","class":"酒吧","id":"1020300029"},
				{"range":"3","name":"莉莉玛莲酒吧","lon":"121.4991758","lat":"31.29840054","flow":"2","consume":"-","class":"酒吧","id":"1020300030"},
				{"range":"3","name":"bm105","lon":"121.5160668","lat":"31.31158554","flow":"1","consume":"-","class":"酒吧","id":"1020300031"},
				{"range":"3","name":"House","lon":"121.5065068","lat":"31.30610254","flow":"77","consume":"72","class":"酒吧","id":"1020300032"},
				{"range":"3","name":"蓝夜媚酒吧","lon":"121.5097748","lat":"31.30355254","flow":"8","consume":"-","class":"酒吧","id":"1020300033"},
				{"range":"3","name":"莉莉玛莲酒吧","lon":"121.5019958","lat":"31.30425454","flow":"6","consume":"-","class":"酒吧","id":"1020300034"},
				{"range":"3","name":"本色酒吧","lon":"121.5095348","lat":"31.30350354","flow":"7","consume":"-","class":"酒吧","id":"1020300035"},
				{"range":"3","name":"lava品牌时尚夜店","lon":"121.5095908","lat":"31.30341854","flow":"1","consume":"-","class":"酒吧","id":"1020300036"},
				{"range":"3","name":"Choi's","lon":"121.5039788","lat":"31.29928854","flow":"8","consume":"-","class":"酒吧","id":"1020300037"},
				{"range":"3","name":"TheForce现场音乐酒吧","lon":"121.5172408","lat":"31.29203054","flow":"1","consume":"-","class":"酒吧","id":"1020300038"},
				{"range":"3","name":"优适酒","lon":"121.5103068","lat":"31.30807854","flow":"4","consume":"-","class":"酒吧","id":"1020300039"},
				{"range":"3","name":"皇后酒吧","lon":"121.5095058","lat":"31.30354654","flow":"1","consume":"-","class":"酒吧","id":"1020300040"},
				{"range":"3","name":"live时尚夜店","lon":"121.5100338","lat":"31.30579954","flow":"1","consume":"-","class":"酒吧","id":"1020300041"},
				{"range":"3","name":"莉莉玛莲酒吧","lon":"121.5092078","lat":"31.30528354","flow":"10","consume":"-","class":"酒吧","id":"1020300042"},
				{"range":"3","name":"歌城酒吧","lon":"121.5095418","lat":"31.30527754","flow":"10","consume":"-","class":"酒吧","id":"1020300043"},
				{"range":"3","name":"o2酒吧","lon":"121.5106138","lat":"31.30474654","flow":"10","consume":"-","class":"酒吧","id":"1020300044"},
				{"range":"3","name":"夜乐门酒吧","lon":"121.5100338","lat":"31.30579954","flow":"10","consume":"-","class":"酒吧","id":"1020300045"},
				{"range":"3","name":"feeling品牌酒吧","lon":"121.5160668","lat":"31.31158554","flow":"10","consume":"-","class":"酒吧","id":"1020300046"},
				{"range":"3","name":"A&SBAR","lon":"121.5081038","lat":"31.30869054","flow":"10","consume":"-","class":"酒吧","id":"1020300047"},
				{"range":"3","name":"SOSClub","lon":"121.5097748","lat":"31.30355254","flow":"10","consume":"-","class":"酒吧","id":"1020300048"},
				{"range":"3","name":"本色mtclub","lon":"121.5095908","lat":"31.30341854","flow":"5","consume":"-","class":"酒吧","id":"1020300049"},
				{"range":"3","name":"菲零俱乐部","lon":"121.5091048","lat":"31.30581354","flow":"10","consume":"-","class":"酒吧","id":"1020300050"},
				{"range":"3","name":"BananaVision","lon":"121.4964208","lat":"31.30559654","flow":"10","consume":"-","class":"酒吧","id":"1020300051"},
				{"range":"3","name":"拉瓦club旗舰店","lon":"121.5097748","lat":"31.30355254","flow":"4","consume":"-","class":"酒吧","id":"1020300052"},
				{"range":"3","name":"Cat1","lon":"121.5097748","lat":"31.30355254","flow":"10","consume":"-","class":"酒吧","id":"1020300053"},
				{"range":"3","name":"CITYPARTY","lon":"121.5248588","lat":"31.30082454","flow":"10","consume":"-","class":"酒吧","id":"1020300054"},
				{"range":"3","name":"奥斯卡酒吧","lon":"121.5183428","lat":"31.31247954","flow":"10","consume":"-","class":"酒吧","id":"1020300055"},
				{"range":"3","name":"catwalk酒吧","lon":"121.5106138","lat":"31.30474654","flow":"10","consume":"-","class":"酒吧","id":"1020300056"},
				{"range":"3","name":"威图酒吧","lon":"121.5096198","lat":"31.30337654","flow":"10","consume":"-","class":"酒吧","id":"1020300057"},
				{"range":"3","name":"阿曼尼","lon":"121.5106138","lat":"31.30474654","flow":"2","consume":"-","class":"酒吧","id":"1020300058"},
				{"range":"3","name":"夜上海iava品牌夜店","lon":"121.5094778","lat":"31.30358854","flow":"10","consume":"-","class":"酒吧","id":"1020300059"},
				{"range":"3","name":"hellonight","lon":"121.5095908","lat":"31.30341854","flow":"10","consume":"-","class":"酒吧","id":"1020300060"},
				{"range":"3","name":"夜吧嗨吧","lon":"121.5097748","lat":"31.30355254","flow":"10","consume":"-","class":"酒吧","id":"1020300061"},
				{"range":"3","name":"黑色club","lon":"121.5097908","lat":"31.30492254","flow":"10","consume":"-","class":"酒吧","id":"1020300062"},
				{"range":"3","name":"PPG","lon":"121.5097748","lat":"31.30355254","flow":"10","consume":"-","class":"酒吧","id":"1020300063"},
				{"range":"3","name":"lava旗舰店","lon":"121.5106138","lat":"31.30474654","flow":"10","consume":"-","class":"酒吧","id":"1020300064"},
				{"range":"3","name":"苏荷酒吧","lon":"121.5095908","lat":"31.30341854","flow":"10","consume":"-","class":"酒吧","id":"1020300065"},
				{"range":"3","name":"NMD精酿酒吧&桌游","lon":"121.5035028","lat":"31.30525554","flow":"138","consume":"62","class":"酒吧","id":"1020300066"},
				{"range":"3","name":"百年名庄红酒","lon":"121.4875378","lat":"31.29162754","flow":"6","consume":"-","class":"酒吧","id":"1020300067"},
				{"range":"5","name":"Helens","lon":"121.5104158","lat":"31.27637954","flow":"82","consume":"87","class":"酒吧","id":"1020500001"},
				{"range":"5","name":"夜乐门酒吧","lon":"121.5307388","lat":"31.27275154","flow":"13","consume":"-","class":"酒吧","id":"1020500002"},
				{"range":"5","name":"缪斯酒吧","lon":"121.5307388","lat":"31.27275154","flow":"19","consume":"111","class":"酒吧","id":"1020500003"},
				{"range":"5","name":"M1X酒吧","lon":"121.5307388","lat":"31.27275154","flow":"2","consume":"-","class":"酒吧","id":"1020500004"},
				{"range":"5","name":"乐巢酒吧","lon":"121.5307388","lat":"31.27275154","flow":"2","consume":"-","class":"酒吧","id":"1020500005"},
				{"range":"5","name":"阿迩法酒吧","lon":"121.5297958","lat":"31.27218554","flow":"23","consume":"256","class":"酒吧","id":"1020500006"},
				{"range":"5","name":"枝豆和马天尼","lon":"121.5095988","lat":"31.27623854","flow":"13","consume":"-","class":"酒吧","id":"1020500007"},
				{"range":"5","name":"O2酒吧","lon":"121.5307388","lat":"31.27275154","flow":"2","consume":"-","class":"酒吧","id":"1020500008"},
				{"range":"5","name":"α酒吧club","lon":"121.5306538","lat":"31.27271354","flow":"2","consume":"-","class":"酒吧","id":"1020500009"},
				{"range":"5","name":"SNACKBARTICKET","lon":"121.5057488","lat":"31.27513954","flow":"10","consume":"-","class":"酒吧","id":"1020500010"},
				{"range":"5","name":"云顶酒吧","lon":"121.5303638","lat":"31.32705554","flow":"3","consume":"-","class":"酒吧","id":"1020500011"},
				{"range":"5","name":"杨浦aLPHaclub","lon":"121.5297958","lat":"31.27218554","flow":"1","consume":"-","class":"酒吧","id":"1020500012"},
				{"range":"5","name":"GB据点","lon":"121.5260708","lat":"31.33282154","flow":"31","consume":"190","class":"酒吧","id":"1020500013"},
				{"range":"5","name":"卖品部SNACKBAR","lon":"121.5330118","lat":"31.26728154","flow":"10","consume":"-","class":"酒吧","id":"1020500014"},
				{"range":"5","name":"诗音客房酒吧","lon":"121.5341388","lat":"31.32061254","flow":"10","consume":"-","class":"酒吧","id":"1020500015"},
				{"range":"5","name":"murphysforest","lon":"121.5203828","lat":"31.26659354","flow":"10","consume":"-","class":"酒吧","id":"1020500016"},
				{"range":"5","name":"TZHouse弹指之间音乐酒吧","lon":"121.4949618","lat":"31.26608954","flow":"389","consume":"178","class":"酒吧","id":"1020500017"},
				{"range":"5","name":"赢吧Bliss","lon":"121.4767018","lat":"31.27350254","flow":"265","consume":"55","class":"酒吧","id":"1020500018"},
				{"range":"5","name":"Maia’s西餐酒吧","lon":"121.4797408","lat":"31.27797654","flow":"230","consume":"87","class":"酒吧","id":"1020500019"},
				{"range":"5","name":"三只狗精酿啤酒","lon":"121.4740818","lat":"31.28510354","flow":"15","consume":"-","class":"酒吧","id":"1020500020"},
				{"range":"5","name":"冠军酒吧","lon":"121.4758218","lat":"31.27532954","flow":"148","consume":"99","class":"酒吧","id":"1020500021"},
				{"range":"5","name":"乐巢酒吧","lon":"121.4869328","lat":"31.27606454","flow":"15","consume":"-","class":"酒吧","id":"1020500022"},
				{"range":"5","name":"DrinkUp进口啤酒量贩","lon":"121.4740818","lat":"31.28510354","flow":"47","consume":"54","class":"酒吧","id":"1020500023"},
				{"range":"5","name":"美基娱乐","lon":"121.4845758","lat":"31.27839654","flow":"5","consume":"-","class":"酒吧","id":"1020500024"},
				{"range":"5","name":"玛亚酒吧","lon":"121.4797408","lat":"31.27797654","flow":"10","consume":"-","class":"酒吧","id":"1020500025"},
				{"range":"5","name":"BOOMSHAKALAKABar","lon":"121.4797308","lat":"31.27804654","flow":"10","consume":"-","class":"酒吧","id":"1020500026"},
				{"range":"5","name":"Helens","lon":"121.4868288","lat":"31.28169454","flow":"10","consume":"-","class":"酒吧","id":"1020500027"},
				{"range":"5","name":"烟雨江南茶艺酒吧","lon":"121.4838788","lat":"31.28810254","flow":"756","consume":"70","class":"酒吧","id":"1020500028"}
			]
		}, {
			"id": "3",
			"number": "20",
			"percentage": "75",
			"class": "咖啡厅",
			"list": [
				{"range":"3","name":"DNACafe","lon":"121.4997908","lat":"31.28030454","flow":"57","consume":"63","class":"咖啡厅","id":"1030300001"},
				{"range":"3","name":"ziincafe","lon":"121.5061388","lat":"31.30691954","flow":"157","consume":"60","class":"咖啡厅","id":"1030300002"},
				{"range":"3","name":"看见咖啡","lon":"121.5048288","lat":"31.30493154","flow":"380","consume":"39","class":"咖啡厅","id":"1030300003"},
				{"range":"3","name":"FortunateCoffee","lon":"121.5062438","lat":"31.30940354","flow":"142","consume":"56","class":"咖啡厅","id":"1030300004"},
				{"range":"3","name":"Cii-Cup","lon":"121.5140688","lat":"31.30267154","flow":"274","consume":"52","class":"咖啡厅","id":"1030300005"},
				{"range":"3","name":"藦茜花园宠物主题咖啡厅&轰趴馆","lon":"121.5208588","lat":"31.29604854","flow":"270","consume":"45","class":"咖啡厅","id":"1030300006"},
				{"range":"3","name":"LukaMacaronCafe","lon":"121.5037158","lat":"31.30541554","flow":"546","consume":"75","class":"咖啡厅","id":"1030300007"},
				{"range":"3","name":"M-3&PUPPYPUB","lon":"121.5058398","lat":"31.30639754","flow":"1084","consume":"68","class":"咖啡厅","id":"1030300008"},
				{"range":"3","name":"猫的天空之城概念书店","lon":"121.5068958","lat":"31.30678754","flow":"3013","consume":"43","class":"咖啡厅","id":"1030300009"},
				{"range":"3","name":"81BAKERY分店","lon":"121.5053698","lat":"31.30619154","flow":"956","consume":"40","class":"咖啡厅","id":"1030300010"},
				{"range":"3","name":"李小姐の猫咖啡馆","lon":"121.5061048","lat":"31.30532454","flow":"745","consume":"49","class":"咖啡厅","id":"1030300011"},
				{"range":"3","name":"星巴克","lon":"121.5139418","lat":"31.30258754","flow":"301","consume":"39","class":"咖啡厅","id":"1030300012"},
				{"range":"3","name":"Homeless","lon":"121.5050698","lat":"31.30581954","flow":"1199","consume":"88","class":"咖啡厅","id":"1030300013"},
				{"range":"3","name":"Hi-StoryCafé&Bar","lon":"121.5030038","lat":"31.30514254","flow":"192","consume":"34","class":"咖啡厅","id":"1030300014"},
				{"range":"3","name":"81BAKERY分店","lon":"121.5171728","lat":"31.29302254","flow":"206","consume":"37","class":"咖啡厅","id":"1030300015"},
				{"range":"3","name":"73coffee","lon":"121.5081038","lat":"31.30869054","flow":"388","consume":"41","class":"咖啡厅","id":"1030300016"},
				{"range":"3","name":"小南国花园酒店“潼”大堂吧分店","lon":"121.5281898","lat":"31.29448854","flow":"240","consume":"105","class":"咖啡厅","id":"1030300017"},
				{"range":"3","name":"MANGOSIX","lon":"121.5140688","lat":"31.30267154","flow":"530","consume":"41","class":"咖啡厅","id":"1030300018"},
				{"range":"3","name":"工作论文咖啡馆·workingpaper","lon":"121.5041078","lat":"31.29396954","flow":"110","consume":"38","class":"咖啡厅","id":"1030300019"},
				{"range":"3","name":"米馆RiceCafe","lon":"121.5131218","lat":"31.31115954","flow":"101","consume":"45","class":"咖啡厅","id":"1030300020"},
				{"range":"3","name":"卡旺卡","lon":"121.5087978","lat":"31.30260854","flow":"2365","consume":"15","class":"咖啡厅","id":"1030300021"},
				{"range":"3","name":"星巴克","lon":"121.5109218","lat":"31.30386554","flow":"1067","consume":"35","class":"咖啡厅","id":"1030300022"},
				{"range":"3","name":"贝斯特猫咪咖啡馆","lon":"121.5064968","lat":"31.30635254","flow":"603","consume":"52","class":"咖啡厅","id":"1030300023"},
				{"range":"3","name":"zoocoffee","lon":"121.5117178","lat":"31.30276654","flow":"1729","consume":"42","class":"咖啡厅","id":"1030300024"},
				{"range":"3","name":"星巴克","lon":"121.5028968","lat":"31.30533354","flow":"476","consume":"34","class":"咖啡厅","id":"1030300025"},
				{"range":"3","name":"星巴克","lon":"121.5163508","lat":"31.31727254","flow":"206","consume":"38","class":"咖啡厅","id":"1030300026"},
				{"range":"3","name":"COSTACOFFEE","lon":"121.5109218","lat":"31.30386554","flow":"360","consume":"38","class":"咖啡厅","id":"1030300027"},
				{"range":"3","name":"Bohemia","lon":"121.5037928","lat":"31.30515854","flow":"568","consume":"113","class":"咖啡厅","id":"1030300028"},
				{"range":"3","name":"Kanescoffee","lon":"121.5040418","lat":"31.30535054","flow":"622","consume":"46","class":"咖啡厅","id":"1030300029"},
				{"range":"3","name":"星巴克","lon":"121.5263098","lat":"31.30462554","flow":"66","consume":"37","class":"咖啡厅","id":"1030300030"},
				{"range":"3","name":"星巴克","lon":"121.5086088","lat":"31.30293554","flow":"124","consume":"35","class":"咖啡厅","id":"1030300031"},
				{"range":"3","name":"星巴克","lon":"121.5172258","lat":"31.29290354","flow":"123","consume":"40","class":"咖啡厅","id":"1030300032"},
				{"range":"3","name":"OURSCAFE凹花石","lon":"121.5019608","lat":"31.28722854","flow":"49","consume":"35","class":"咖啡厅","id":"1030300033"},
				{"range":"3","name":"MeowBar宠物猫舍咖啡馆","lon":"121.5247798","lat":"31.30404454","flow":"33","consume":"56","class":"咖啡厅","id":"1030300034"},
				{"range":"3","name":"太平洋咖啡","lon":"121.5049538","lat":"31.29866954","flow":"84","consume":"43","class":"咖啡厅","id":"1030300035"},
				{"range":"3","name":"雕刻时光咖啡馆","lon":"121.5064268","lat":"31.30632254","flow":"1838","consume":"60","class":"咖啡厅","id":"1030300036"},
				{"range":"3","name":"乐全时八音盒主题咖啡","lon":"121.5052298","lat":"31.30585054","flow":"132","consume":"155","class":"咖啡厅","id":"1030300037"},
				{"range":"3","name":"樱束の屋女仆咖啡厅","lon":"121.4879118","lat":"31.30308554","flow":"94","consume":"80","class":"咖啡厅","id":"1030300038"},
				{"range":"3","name":"小南国花园酒店","lon":"121.5284188","lat":"31.29473254","flow":"11","consume":"150","class":"咖啡厅","id":"1030300039"},
				{"range":"3","name":"麦隆咖啡mellowercoffee","lon":"121.5019318","lat":"31.28640454","flow":"36","consume":"65","class":"咖啡厅","id":"1030300040"},
				{"range":"3","name":"纽拉咖啡–NewLife","lon":"121.5035888","lat":"31.29243554","flow":"56","consume":"16","class":"咖啡厅","id":"1030300041"},
				{"range":"3","name":"73coffee","lon":"121.5058898","lat":"31.30808754","flow":"42","consume":"31","class":"咖啡厅","id":"1030300042"},
				{"range":"3","name":"星巴克","lon":"121.5051298","lat":"31.29845654","flow":"108","consume":"33","class":"咖啡厅","id":"1030300043"},
				{"range":"3","name":"星巴克","lon":"121.5115608","lat":"31.30069354","flow":"27","consume":"37","class":"咖啡厅","id":"1030300044"},
				{"range":"3","name":"星巴克","lon":"121.4830998","lat":"31.30251254","flow":"46","consume":"41","class":"咖啡厅","id":"1030300045"},
				{"range":"3","name":"星巴克","lon":"121.5007028","lat":"31.28790154","flow":"28","consume":"48","class":"咖啡厅","id":"1030300046"},
				{"range":"3","name":"星巴克","lon":"121.5135978","lat":"31.29032354","flow":"131","consume":"36","class":"咖啡厅","id":"1030300047"},
				{"range":"3","name":"星巴克","lon":"121.5039358","lat":"31.31056054","flow":"71","consume":"40","class":"咖啡厅","id":"1030300048"},
				{"range":"3","name":"太平洋咖啡","lon":"121.5278628","lat":"31.31584454","flow":"227","consume":"34","class":"咖啡厅","id":"1030300049"},
				{"range":"3","name":"星巴克","lon":"121.5303498","lat":"31.29625954","flow":"72","consume":"41","class":"咖啡厅","id":"1030300050"},
				{"range":"3","name":"1454'scafe","lon":"121.5120078","lat":"31.30328054","flow":"209","consume":"19","class":"咖啡厅","id":"1030300051"},
				{"range":"3","name":"旅味coffee&desserts","lon":"121.5239518","lat":"31.28479754","flow":"210","consume":"53","class":"咖啡厅","id":"1030300052"},
				{"range":"3","name":"星巴克","lon":"121.4859988","lat":"31.29628954","flow":"7","consume":"-","class":"咖啡厅","id":"1030300053"},
				{"range":"3","name":"星巴克","lon":"121.5109768","lat":"31.31087654","flow":"53","consume":"51","class":"咖啡厅","id":"1030300054"},
				{"range":"3","name":"7PuzzleCafe","lon":"121.4991858","lat":"31.29597854","flow":"137","consume":"43","class":"咖啡厅","id":"1030300055"},
				{"range":"3","name":"星巴克","lon":"121.5025218","lat":"31.28383854","flow":"31","consume":"43","class":"咖啡厅","id":"1030300056"},
				{"range":"3","name":"zoocoffee","lon":"121.5140688","lat":"31.30267154","flow":"419","consume":"38","class":"咖啡厅","id":"1030300057"},
				{"range":"3","name":"CoffeeBox","lon":"121.5109768","lat":"31.31087654","flow":"6","consume":"25","class":"咖啡厅","id":"1030300058"},
				{"range":"3","name":"星巴克","lon":"121.5059308","lat":"31.32009054","flow":"46","consume":"38","class":"咖啡厅","id":"1030300059"},
				{"range":"3","name":"胖猫咖啡","lon":"121.4858848","lat":"31.29653254","flow":"144","consume":"58","class":"咖啡厅","id":"1030300060"},
				{"range":"3","name":"学院咖啡馆","lon":"121.5031438","lat":"31.30500354","flow":"112","consume":"44","class":"咖啡厅","id":"1030300061"},
				{"range":"3","name":"CaféPlus咖啡加","lon":"121.5103068","lat":"31.30807854","flow":"83","consume":"33","class":"咖啡厅","id":"1030300062"},
				{"range":"3","name":"Loveis咖啡馆","lon":"121.5208588","lat":"31.29604854","flow":"27","consume":"23","class":"咖啡厅","id":"1030300063"},
				{"range":"3","name":"Goeast","lon":"121.5049098","lat":"31.30496754","flow":"19","consume":"32","class":"咖啡厅","id":"1030300064"},
				{"range":"3","name":"雕刻时光咖啡馆","lon":"121.5031438","lat":"31.30500354","flow":"228","consume":"45","class":"咖啡厅","id":"1030300065"},
				{"range":"3","name":"COSTACOFFEE","lon":"121.5020478","lat":"31.28736954","flow":"58","consume":"39","class":"咖啡厅","id":"1030300066"},
				{"range":"3","name":"ThreeCafe","lon":"121.5103068","lat":"31.30807854","flow":"62","consume":"34","class":"咖啡厅","id":"1030300067"},
				{"range":"3","name":"YIMI咖啡&精酿馆","lon":"121.5005268","lat":"31.31555954","flow":"23","consume":"-","class":"咖啡厅","id":"1030300068"},
				{"range":"3","name":"上岛咖啡","lon":"121.5334958","lat":"31.31380854","flow":"45","consume":"65","class":"咖啡厅","id":"1030300069"},
				{"range":"3","name":"熊猫窝咖啡司","lon":"121.5081038","lat":"31.30869054","flow":"63","consume":"37","class":"咖啡厅","id":"1030300070"},
				{"range":"3","name":"现磨咖啡COFFEE","lon":"121.5123658","lat":"31.30348654","flow":"91","consume":"17","class":"咖啡厅","id":"1030300071"},
				{"range":"3","name":"我去·RUNcoffee分店","lon":"121.5036508","lat":"31.30222654","flow":"22","consume":"33","class":"咖啡厅","id":"1030300072"},
				{"range":"3","name":"D&C咖啡店","lon":"121.5047358","lat":"31.28993454","flow":"12","consume":"-","class":"咖啡厅","id":"1030300073"},
				{"range":"3","name":"上岛咖啡","lon":"121.5158848","lat":"31.31156554","flow":"133","consume":"47","class":"咖啡厅","id":"1030300074"},
				{"range":"3","name":"星空咖啡厅","lon":"121.4996058","lat":"31.29860254","flow":"121","consume":"30","class":"咖啡厅","id":"1030300075"},
				{"range":"3","name":"星巴克","lon":"121.5051708","lat":"31.31862254","flow":"37","consume":"37","class":"咖啡厅","id":"1030300076"},
				{"range":"3","name":"SuperHeroes","lon":"121.5055688","lat":"31.30600354","flow":"37","consume":"107","class":"咖啡厅","id":"1030300077"},
				{"range":"3","name":"熙贤咖啡xixiancoffee","lon":"121.4991348","lat":"31.29611054","flow":"9","consume":"44","class":"咖啡厅","id":"1030300078"},
				{"range":"3","name":"上岛咖啡","lon":"121.4991858","lat":"31.29597854","flow":"274","consume":"64","class":"咖啡厅","id":"1030300079"},
				{"range":"3","name":"UNCAFFÈ","lon":"121.5168678","lat":"31.29939354","flow":"5","consume":"-","class":"咖啡厅","id":"1030300080"},
				{"range":"3","name":"猫主题咖啡馆","lon":"121.5073288","lat":"31.29125154","flow":"1","consume":"71","class":"咖啡厅","id":"1030300081"},
				{"range":"3","name":"必胜客宅急送下午茶","lon":"121.5313628","lat":"31.29669654","flow":"1","consume":"-","class":"咖啡厅","id":"1030300082"},
				{"range":"3","name":"STARBUCKSCOFFEE","lon":"121.5117178","lat":"31.30276654","flow":"7","consume":"-","class":"咖啡厅","id":"1030300083"},
				{"range":"3","name":"纸品咖啡","lon":"121.5140688","lat":"31.30267154","flow":"4","consume":"29","class":"咖啡厅","id":"1030300084"},
				{"range":"3","name":"酷窝咖啡","lon":"121.5059298","lat":"31.30781754","flow":"33","consume":"26","class":"咖啡厅","id":"1030300085"},
				{"range":"3","name":"illy","lon":"121.5086488","lat":"31.30387654","flow":"1","consume":"-","class":"咖啡厅","id":"1030300086"},
				{"range":"3","name":"COFFEETIME","lon":"121.4898688","lat":"31.30319654","flow":"82","consume":"29","class":"咖啡厅","id":"1030300087"},
				{"range":"3","name":"伊诺咖啡","lon":"121.5146078","lat":"31.29065154","flow":"5","consume":"-","class":"咖啡厅","id":"1030300088"},
				{"range":"3","name":"OCEcoffee","lon":"121.5097748","lat":"31.30355254","flow":"13","consume":"31","class":"咖啡厅","id":"1030300089"},
				{"range":"3","name":"臻田咖啡","lon":"121.5249118","lat":"31.30684754","flow":"4","consume":"-","class":"咖啡厅","id":"1030300090"},
				{"range":"3","name":"伊佧仕咖啡","lon":"121.5237548","lat":"31.28138454","flow":"158","consume":"60","class":"咖啡厅","id":"1030300091"},
				{"range":"3","name":"筑＋Cafe","lon":"121.4976958","lat":"31.28887654","flow":"36","consume":"28","class":"咖啡厅","id":"1030300092"},
				{"range":"3","name":"多多尼花园餐厅","lon":"121.5043598","lat":"31.28217254","flow":"10","consume":"26","class":"咖啡厅","id":"1030300093"},
				{"range":"3","name":"CafeMin's","lon":"121.5042658","lat":"31.31074354","flow":"23","consume":"44","class":"咖啡厅","id":"1030300094"},
				{"range":"3","name":"SIMPL简直咖啡","lon":"121.5089698","lat":"31.30709054","flow":"3","consume":"-","class":"咖啡厅","id":"1030300095"},
				{"range":"3","name":"ILOVECHOC","lon":"121.5070858","lat":"31.30659954","flow":"4","consume":"-","class":"咖啡厅","id":"1030300096"},
				{"range":"3","name":"th私房西餐体验馆","lon":"121.5038878","lat":"31.32285254","flow":"27","consume":"-","class":"咖啡厅","id":"1030300097"},
				{"range":"3","name":"McCafé","lon":"121.5279158","lat":"31.31741654","flow":"26","consume":"24","class":"咖啡厅","id":"1030300098"},
				{"range":"3","name":"一点咖啡馆","lon":"121.5035188","lat":"31.28993454","flow":"48","consume":"30","class":"咖啡厅","id":"1030300099"},
				{"range":"3","name":"杰瑞克咖啡","lon":"121.5043318","lat":"31.29881454","flow":"56","consume":"16","class":"咖啡厅","id":"1030300100"},
				{"range":"3","name":"SPRCOFFEE","lon":"121.4894248","lat":"31.30299554","flow":"10","consume":"42","class":"咖啡厅","id":"1030300101"},
				{"range":"3","name":"雅憩休闲咖啡馆","lon":"121.5018728","lat":"31.28454454","flow":"207","consume":"42","class":"咖啡厅","id":"1030300102"},
				{"range":"3","name":"复旦大学大家沙龙","lon":"121.4972438","lat":"31.29483454","flow":"18","consume":"11","class":"咖啡厅","id":"1030300103"},
				{"range":"3","name":"复旦校友创业俱乐部","lon":"121.5065958","lat":"31.30686354","flow":"10","consume":"-","class":"咖啡厅","id":"1030300104"},
				{"range":"3","name":"SSSNAME","lon":"121.5109028","lat":"31.30560754","flow":"2","consume":"-","class":"咖啡厅","id":"1030300105"},
				{"range":"3","name":"星轩咖啡","lon":"121.5080808","lat":"31.30394954","flow":"23","consume":"12","class":"咖啡厅","id":"1030300106"},
				{"range":"3","name":"JERICCOFFEE","lon":"121.5043318","lat":"31.29881454","flow":"1","consume":"-","class":"咖啡厅","id":"1030300107"},
				{"range":"3","name":"LifestyleAR馆","lon":"121.5154528","lat":"31.30127454","flow":"1","consume":"-","class":"咖啡厅","id":"1030300108"},
				{"range":"3","name":"愚谷","lon":"121.4921718","lat":"31.29676054","flow":"2","consume":"-","class":"咖啡厅","id":"1030300109"},
				{"range":"3","name":"源咖啡","lon":"121.5029008","lat":"31.28450054","flow":"13","consume":"19","class":"咖啡厅","id":"1030300110"},
				{"range":"3","name":"锦港咖啡馆","lon":"121.5251758","lat":"31.28568154","flow":"11","consume":"42","class":"咖啡厅","id":"1030300111"},
				{"range":"3","name":"路岛咖啡","lon":"121.5168828","lat":"31.29040454","flow":"3","consume":"-","class":"咖啡厅","id":"1030300112"},
				{"range":"3","name":"薄荷花园","lon":"121.5060178","lat":"31.30617854","flow":"10","consume":"-","class":"咖啡厅","id":"1030300113"},
				{"range":"3","name":"VIIIIICOFFEE","lon":"121.5081038","lat":"31.30869054","flow":"10","consume":"-","class":"咖啡厅","id":"1030300114"},
				{"range":"3","name":"PureFruity","lon":"121.5142138","lat":"31.31081554","flow":"10","consume":"-","class":"咖啡厅","id":"1030300115"},
				{"range":"3","name":"ESQUIRESCOFFEE","lon":"121.5064588","lat":"31.30866254","flow":"10","consume":"-","class":"咖啡厅","id":"1030300116"},
				{"range":"3","name":"dbk咖啡店","lon":"121.4879818","lat":"31.30343554","flow":"10","consume":"-","class":"咖啡厅","id":"1030300117"},
				{"range":"3","name":"SealionsSpaceClub","lon":"121.5088798","lat":"31.30559954","flow":"10","consume":"-","class":"咖啡厅","id":"1030300118"},
				{"range":"3","name":"e1Even","lon":"121.5148078","lat":"31.31084954","flow":"10","consume":"-","class":"咖啡厅","id":"1030300119"},
				{"range":"3","name":"玛丽coffee","lon":"121.5039078","lat":"31.29908854","flow":"10","consume":"-","class":"咖啡厅","id":"1030300120"},
				{"range":"3","name":"STELLA","lon":"121.5039028","lat":"31.30567254","flow":"10","consume":"-","class":"咖啡厅","id":"1030300121"},
				{"range":"3","name":"悠米影时光","lon":"121.5042218","lat":"31.30560154","flow":"10","consume":"-","class":"咖啡厅","id":"1030300122"},
				{"range":"3","name":"雕刻时光咖啡学院","lon":"121.5027148","lat":"31.30542954","flow":"1","consume":"-","class":"咖啡厅","id":"1030300123"},
				{"range":"3","name":"哈拉里咖啡生活馆","lon":"121.5065628","lat":"31.30007254","flow":"15","consume":"10","class":"咖啡厅","id":"1030300124"},
				{"range":"3","name":"TankardCafe","lon":"121.4997408","lat":"31.28101054","flow":"1","consume":"-","class":"咖啡厅","id":"1030300125"},
				{"range":"3","name":"kimi'scafe&restaurant","lon":"121.5312948","lat":"31.29136654","flow":"10","consume":"-","class":"咖啡厅","id":"1030300126"},
				{"range":"3","name":"鱼醋","lon":"121.5086488","lat":"31.30387654","flow":"3","consume":"-","class":"咖啡厅","id":"1030300127"},
				{"range":"3","name":"咕噜猫","lon":"121.5025218","lat":"31.28383854","flow":"10","consume":"-","class":"咖啡厅","id":"1030300128"},
				{"range":"3","name":"德克利咖啡","lon":"121.4916328","lat":"31.31091554","flow":"32","consume":"50","class":"咖啡厅","id":"1030300129"},
				{"range":"3","name":"STARBUCKSCOFFEE","lon":"121.5025218","lat":"31.28383854","flow":"10","consume":"-","class":"咖啡厅","id":"1030300130"},
				{"range":"3","name":"办伴咖啡","lon":"121.5156338","lat":"31.27895754","flow":"10","consume":"-","class":"咖啡厅","id":"1030300131"},
				{"range":"3","name":"樱草花咖啡","lon":"121.4876738","lat":"31.30630854","flow":"10","consume":"-","class":"咖啡厅","id":"1030300132"},
				{"range":"3","name":"Coffeeshop","lon":"121.5141358","lat":"31.28959254","flow":"10","consume":"-","class":"咖啡厅","id":"1030300133"},
				{"range":"3","name":"25°nspecialtycoffee","lon":"121.5093928","lat":"31.29047454","flow":"10","consume":"-","class":"咖啡厅","id":"1030300134"},
				{"range":"3","name":"金融信息实验室","lon":"121.4997608","lat":"31.30779454","flow":"10","consume":"-","class":"咖啡厅","id":"1030300135"},
				{"range":"3","name":"92度咖啡","lon":"121.5005418","lat":"31.31000854","flow":"10","consume":"-","class":"咖啡厅","id":"1030300136"},
				{"range":"3","name":"PACIFICCOFFEE","lon":"121.5278238","lat":"31.31552454","flow":"10","consume":"-","class":"咖啡厅","id":"1030300137"},
				{"range":"3","name":"STARBARSCOFFEE","lon":"121.5024318","lat":"31.31020754","flow":"1","consume":"-","class":"咖啡厅","id":"1030300138"},
				{"range":"3","name":"东方园-咖吧","lon":"121.5273048","lat":"31.31354454","flow":"10","consume":"-","class":"咖啡厅","id":"1030300139"},
				{"range":"3","name":"百步廊咖啡吧","lon":"121.4958968","lat":"31.28920454","flow":"1","consume":"-","class":"咖啡厅","id":"1030300140"},
				{"range":"3","name":"锦兰咖啡馆","lon":"121.5164168","lat":"31.29479954","flow":"1","consume":"-","class":"咖啡厅","id":"1030300141"},
				{"range":"3","name":"菜号驿站","lon":"121.5289768","lat":"31.28633354","flow":"10","consume":"-","class":"咖啡厅","id":"1030300142"},
				{"range":"3","name":"香醇单品咖啡","lon":"121.5000238","lat":"31.28868454","flow":"2","consume":"-","class":"咖啡厅","id":"1030300143"},
				{"range":"3","name":"涟漪咖啡屋","lon":"121.5136018","lat":"31.27975454","flow":"4","consume":"-","class":"咖啡厅","id":"1030300144"},
				{"range":"3","name":"复宣咖啡吧","lon":"121.5045688","lat":"31.30103354","flow":"3","consume":"15","class":"咖啡厅","id":"1030300145"},
				{"range":"3","name":"星咖啡","lon":"121.5272358","lat":"31.28636054","flow":"10","consume":"-","class":"咖啡厅","id":"1030300146"},
				{"range":"3","name":"现磨咖啡","lon":"121.5121248","lat":"31.29963254","flow":"10","consume":"-","class":"咖啡厅","id":"1030300147"},
				{"range":"3","name":"Theme咖啡","lon":"121.5044638","lat":"31.28297554","flow":"10","consume":"-","class":"咖啡厅","id":"1030300148"},
				{"range":"3","name":"咖啡码头","lon":"121.5024428","lat":"31.32495254","flow":"10","consume":"-","class":"咖啡厅","id":"1030300149"},
				{"range":"3","name":"锦江都城外滩经典酒店双人下午茶","lon":"121.5041188","lat":"31.28772654","flow":"10","consume":"-","class":"咖啡厅","id":"1030300150"},
				{"range":"3","name":"星享送咖啡","lon":"121.5214498","lat":"31.31985454","flow":"10","consume":"-","class":"咖啡厅","id":"1030300151"},
				{"range":"3","name":"棋牌足浴休闲茶室咖啡","lon":"121.5054378","lat":"31.28003654","flow":"10","consume":"-","class":"咖啡厅","id":"1030300152"},
				{"range":"3","name":"众孵咖啡","lon":"121.5258628","lat":"31.29947054","flow":"10","consume":"-","class":"咖啡厅","id":"1030300153"},
				{"range":"3","name":"饰季园咖啡","lon":"121.5038878","lat":"31.32285254","flow":"10","consume":"-","class":"咖啡厅","id":"1030300154"},
				{"range":"3","name":"肯诺咖啡","lon":"121.5092588","lat":"31.27759454","flow":"10","consume":"-","class":"咖啡厅","id":"1030300155"},
				{"range":"3","name":"taper咖啡馆","lon":"121.5095518","lat":"31.28047154","flow":"10","consume":"-","class":"咖啡厅","id":"1030300156"},
				{"range":"3","name":"coffeebox","lon":"121.5145638","lat":"31.28998954","flow":"10","consume":"-","class":"咖啡厅","id":"1030300157"},
				{"range":"3","name":"CafeTTOMA暂停营业","lon":"121.5248588","lat":"31.30082454","flow":"1133","consume":"43","class":"咖啡厅","id":"1030300158"},
				{"range":"3","name":"西摩兰咖啡馆暂停营业","lon":"121.5069928","lat":"31.28328754","flow":"1","consume":"-","class":"咖啡厅","id":"1030300159"},
				{"range":"3","name":"星巴克","lon":"121.5089708","lat":"31.30434954","flow":"1633","consume":"40","class":"咖啡厅","id":"1030300160"},
				{"range":"3","name":"ICCAFE","lon":"121.5155118","lat":"31.30067054","flow":"10","consume":"-","class":"咖啡厅","id":"1030300161"},
				{"range":"3","name":"enocoffee","lon":"121.5154528","lat":"31.30127454","flow":"10","consume":"-","class":"咖啡厅","id":"1030300162"},
				{"range":"3","name":"lamade拉莫达","lon":"121.5140688","lat":"31.30267154","flow":"1","consume":"-","class":"咖啡厅","id":"1030300163"},
				{"range":"3","name":"星巴克","lon":"121.5139418","lat":"31.30258754","flow":"301","consume":"39","class":"咖啡厅","id":"1030300164"},
				{"range":"3","name":"星巴克","lon":"121.5109218","lat":"31.30386554","flow":"1067","consume":"35","class":"咖啡厅","id":"1030300165"},
				{"range":"3","name":"zoocoffee","lon":"121.5117178","lat":"31.30276654","flow":"1729","consume":"42","class":"咖啡厅","id":"1030300166"},
				{"range":"3","name":"星巴克","lon":"121.5028968","lat":"31.30533354","flow":"476","consume":"34","class":"咖啡厅","id":"1030300167"},
				{"range":"3","name":"星巴克","lon":"121.5163508","lat":"31.31727254","flow":"206","consume":"38","class":"咖啡厅","id":"1030300168"},
				{"range":"3","name":"星巴克","lon":"121.5263098","lat":"31.30462554","flow":"66","consume":"37","class":"咖啡厅","id":"1030300169"},
				{"range":"3","name":"星巴克","lon":"121.5086088","lat":"31.30293554","flow":"124","consume":"35","class":"咖啡厅","id":"1030300170"},
				{"range":"3","name":"星巴克","lon":"121.5172258","lat":"31.29290354","flow":"123","consume":"40","class":"咖啡厅","id":"1030300171"},
				{"range":"3","name":"星巴克","lon":"121.5051298","lat":"31.29845654","flow":"108","consume":"33","class":"咖啡厅","id":"1030300172"},
				{"range":"3","name":"星巴克","lon":"121.4830998","lat":"31.30251254","flow":"46","consume":"41","class":"咖啡厅","id":"1030300173"},
				{"range":"3","name":"星巴克","lon":"121.5007028","lat":"31.28790154","flow":"28","consume":"48","class":"咖啡厅","id":"1030300174"},
				{"range":"3","name":"星巴克","lon":"121.5135978","lat":"31.29032354","flow":"131","consume":"36","class":"咖啡厅","id":"1030300175"},
				{"range":"3","name":"星巴克","lon":"121.5039358","lat":"31.31056054","flow":"71","consume":"40","class":"咖啡厅","id":"1030300176"},
				{"range":"3","name":"星巴克","lon":"121.5303498","lat":"31.29625954","flow":"72","consume":"41","class":"咖啡厅","id":"1030300177"},
				{"range":"3","name":"星巴克","lon":"121.5109768","lat":"31.31087654","flow":"53","consume":"51","class":"咖啡厅","id":"1030300178"},
				{"range":"3","name":"星巴克","lon":"121.5025218","lat":"31.28383854","flow":"31","consume":"43","class":"咖啡厅","id":"1030300179"},
				{"range":"3","name":"星巴克","lon":"121.5005268","lat":"31.31555954","flow":"67","consume":"42","class":"咖啡厅","id":"1030300180"},
				{"range":"3","name":"星巴克","lon":"121.5059308","lat":"31.32009054","flow":"46","consume":"38","class":"咖啡厅","id":"1030300181"},
				{"range":"3","name":"星巴克","lon":"121.5051708","lat":"31.31862254","flow":"37","consume":"37","class":"咖啡厅","id":"1030300182"},
				{"range":"3","name":"Bohemia","lon":"121.5037928","lat":"31.30515854","flow":"568","consume":"113","class":"咖啡厅","id":"1030300183"},
				{"range":"3","name":"上岛咖啡","lon":"121.5158848","lat":"31.31156554","flow":"133","consume":"47","class":"咖啡厅","id":"1030300184"},
				{"range":"3","name":"上岛咖啡","lon":"121.4991858","lat":"31.29597854","flow":"274","consume":"64","class":"咖啡厅","id":"1030300185"},
				{"range":"3","name":"雅憩休闲咖啡馆","lon":"121.5018728","lat":"31.28454454","flow":"207","consume":"42","class":"咖啡厅","id":"1030300186"},
				{"range":"3","name":"德克利咖啡","lon":"121.4916328","lat":"31.31091554","flow":"32","consume":"50","class":"咖啡厅","id":"1030300187"},
				{"range":"3","name":"猫的天空之城概念书店","lon":"121.5068958","lat":"31.30678754","flow":"3013","consume":"43","class":"咖啡厅","id":"1030300188"},
				{"range":"3","name":"乐全时八音盒主题咖啡","lon":"121.5052298","lat":"31.30585054","flow":"132","consume":"155","class":"咖啡厅","id":"1030300189"},
				{"range":"3","name":"DNACafe","lon":"121.4997908","lat":"31.28030454","flow":"57","consume":"63","class":"咖啡厅","id":"1030300190"},
				{"range":"3","name":"ziincafe","lon":"121.5061388","lat":"31.30691954","flow":"157","consume":"60","class":"咖啡厅","id":"1030300191"},
				{"range":"3","name":"看见咖啡","lon":"121.5048288","lat":"31.30493154","flow":"380","consume":"39","class":"咖啡厅","id":"1030300192"},
				{"range":"3","name":"FortunateCoffee","lon":"121.5062438","lat":"31.30940354","flow":"142","consume":"56","class":"咖啡厅","id":"1030300193"},
				{"range":"3","name":"Cii-Cup","lon":"121.5140688","lat":"31.30267154","flow":"274","consume":"52","class":"咖啡厅","id":"1030300194"},
				{"range":"3","name":"藦茜花园宠物主题咖啡厅&轰趴馆","lon":"121.5208588","lat":"31.29604854","flow":"270","consume":"45","class":"咖啡厅","id":"1030300195"},
				{"range":"3","name":"LukaMacaronCafe","lon":"121.5037158","lat":"31.30541554","flow":"546","consume":"75","class":"咖啡厅","id":"1030300196"},
				{"range":"3","name":"M-3&PUPPYPUB","lon":"121.5058398","lat":"31.30639754","flow":"1084","consume":"68","class":"咖啡厅","id":"1030300197"},
				{"range":"3","name":"猫的天空之城概念书店","lon":"121.5068958","lat":"31.30678754","flow":"3013","consume":"43","class":"咖啡厅","id":"1030300198"},
				{"range":"3","name":"81BAKERY分店","lon":"121.5053698","lat":"31.30619154","flow":"956","consume":"40","class":"咖啡厅","id":"1030300199"},
				{"range":"3","name":"李小姐の猫咖啡馆","lon":"121.5061048","lat":"31.30532454","flow":"745","consume":"49","class":"咖啡厅","id":"1030300200"},
				{"range":"3","name":"星巴克","lon":"121.5139418","lat":"31.30258754","flow":"301","consume":"39","class":"咖啡厅","id":"1030300201"},
				{"range":"3","name":"Homeless","lon":"121.5050698","lat":"31.30581954","flow":"1199","consume":"88","class":"咖啡厅","id":"1030300202"},
				{"range":"3","name":"Hi-StoryCafé&Bar","lon":"121.5030038","lat":"31.30514254","flow":"192","consume":"34","class":"咖啡厅","id":"1030300203"},
				{"range":"3","name":"81BAKERY分店","lon":"121.5171728","lat":"31.29302254","flow":"206","consume":"37","class":"咖啡厅","id":"1030300204"},
				{"range":"3","name":"73coffee","lon":"121.5081038","lat":"31.30869054","flow":"388","consume":"41","class":"咖啡厅","id":"1030300205"},
				{"range":"3","name":"小南国花园酒店“潼”大堂吧分店","lon":"121.5281898","lat":"31.29448854","flow":"240","consume":"105","class":"咖啡厅","id":"1030300206"},
				{"range":"3","name":"MANGOSIX","lon":"121.5140688","lat":"31.30267154","flow":"530","consume":"41","class":"咖啡厅","id":"1030300207"},
				{"range":"3","name":"工作论文咖啡馆·workingpaper","lon":"121.5041078","lat":"31.29396954","flow":"110","consume":"38","class":"咖啡厅","id":"1030300208"},
				{"range":"3","name":"米馆RiceCafe","lon":"121.5131218","lat":"31.31115954","flow":"101","consume":"45","class":"咖啡厅","id":"1030300209"},
				{"range":"3","name":"卡旺卡","lon":"121.5087978","lat":"31.30260854","flow":"2365","consume":"15","class":"咖啡厅","id":"1030300210"},
				{"range":"3","name":"星巴克","lon":"121.5109218","lat":"31.30386554","flow":"1067","consume":"35","class":"咖啡厅","id":"1030300211"},
				{"range":"3","name":"贝斯特猫咪咖啡馆","lon":"121.5064968","lat":"31.30635254","flow":"603","consume":"52","class":"咖啡厅","id":"1030300212"},
				{"range":"3","name":"zoocoffee","lon":"121.5117178","lat":"31.30276654","flow":"1729","consume":"42","class":"咖啡厅","id":"1030300213"},
				{"range":"3","name":"星巴克","lon":"121.5028968","lat":"31.30533354","flow":"476","consume":"34","class":"咖啡厅","id":"1030300214"},
				{"range":"3","name":"星巴克","lon":"121.5163508","lat":"31.31727254","flow":"206","consume":"38","class":"咖啡厅","id":"1030300215"},
				{"range":"3","name":"COSTACOFFEE","lon":"121.5109218","lat":"31.30386554","flow":"360","consume":"38","class":"咖啡厅","id":"1030300216"},
				{"range":"3","name":"Bohemia","lon":"121.5037928","lat":"31.30515854","flow":"568","consume":"113","class":"咖啡厅","id":"1030300217"},
				{"range":"3","name":"Kanescoffee","lon":"121.5040418","lat":"31.30535054","flow":"622","consume":"46","class":"咖啡厅","id":"1030300218"},
				{"range":"3","name":"星巴克","lon":"121.5263098","lat":"31.30462554","flow":"66","consume":"37","class":"咖啡厅","id":"1030300219"},
				{"range":"3","name":"星巴克","lon":"121.5086088","lat":"31.30293554","flow":"124","consume":"35","class":"咖啡厅","id":"1030300220"},
				{"range":"3","name":"星巴克","lon":"121.5172258","lat":"31.29290354","flow":"123","consume":"40","class":"咖啡厅","id":"1030300221"},
				{"range":"3","name":"OURSCAFE凹花石","lon":"121.5019608","lat":"31.28722854","flow":"49","consume":"35","class":"咖啡厅","id":"1030300222"},
				{"range":"3","name":"MeowBar宠物猫舍咖啡馆","lon":"121.5247798","lat":"31.30404454","flow":"33","consume":"56","class":"咖啡厅","id":"1030300223"},
				{"range":"3","name":"太平洋咖啡","lon":"121.5049538","lat":"31.29866954","flow":"84","consume":"43","class":"咖啡厅","id":"1030300224"},
				{"range":"3","name":"雕刻时光咖啡馆","lon":"121.5064268","lat":"31.30632254","flow":"1838","consume":"60","class":"咖啡厅","id":"1030300225"},
				{"range":"3","name":"乐全时八音盒主题咖啡","lon":"121.5052298","lat":"31.30585054","flow":"132","consume":"155","class":"咖啡厅","id":"1030300226"},
				{"range":"3","name":"樱束の屋女仆咖啡厅","lon":"121.4879118","lat":"31.30308554","flow":"94","consume":"80","class":"咖啡厅","id":"1030300227"},
				{"range":"3","name":"小南国花园酒店","lon":"121.5284188","lat":"31.29473254","flow":"11","consume":"150","class":"咖啡厅","id":"1030300228"},
				{"range":"3","name":"麦隆咖啡mellowercoffee","lon":"121.5019318","lat":"31.28640454","flow":"36","consume":"65","class":"咖啡厅","id":"1030300229"},
				{"range":"3","name":"纽拉咖啡–NewLife","lon":"121.5035888","lat":"31.29243554","flow":"56","consume":"16","class":"咖啡厅","id":"1030300230"},
				{"range":"3","name":"73coffee","lon":"121.5058898","lat":"31.30808754","flow":"42","consume":"31","class":"咖啡厅","id":"1030300231"},
				{"range":"3","name":"星巴克","lon":"121.5051298","lat":"31.29845654","flow":"108","consume":"33","class":"咖啡厅","id":"1030300232"},
				{"range":"3","name":"星巴克","lon":"121.5115608","lat":"31.30069354","flow":"27","consume":"37","class":"咖啡厅","id":"1030300233"},
				{"range":"3","name":"星巴克","lon":"121.4830998","lat":"31.30251254","flow":"46","consume":"41","class":"咖啡厅","id":"1030300234"},
				{"range":"3","name":"星巴克","lon":"121.5007028","lat":"31.28790154","flow":"28","consume":"48","class":"咖啡厅","id":"1030300235"},
				{"range":"3","name":"星巴克","lon":"121.5135978","lat":"31.29032354","flow":"131","consume":"36","class":"咖啡厅","id":"1030300236"},
				{"range":"3","name":"星巴克","lon":"121.5039358","lat":"31.31056054","flow":"71","consume":"40","class":"咖啡厅","id":"1030300237"},
				{"range":"3","name":"太平洋咖啡","lon":"121.5278628","lat":"31.31584454","flow":"227","consume":"34","class":"咖啡厅","id":"1030300238"},
				{"range":"3","name":"星巴克","lon":"121.5303498","lat":"31.29625954","flow":"72","consume":"41","class":"咖啡厅","id":"1030300239"},
				{"range":"3","name":"1454'scafe","lon":"121.5120078","lat":"31.30328054","flow":"209","consume":"19","class":"咖啡厅","id":"1030300240"},
				{"range":"3","name":"旅味coffee&desserts","lon":"121.5239518","lat":"31.28479754","flow":"210","consume":"53","class":"咖啡厅","id":"1030300241"},
				{"range":"3","name":"星巴克","lon":"121.4859988","lat":"31.29628954","flow":"7","consume":"-","class":"咖啡厅","id":"1030300242"},
				{"range":"3","name":"星巴克","lon":"121.5109768","lat":"31.31087654","flow":"53","consume":"51","class":"咖啡厅","id":"1030300243"},
				{"range":"3","name":"7PuzzleCafe","lon":"121.4991858","lat":"31.29597854","flow":"137","consume":"43","class":"咖啡厅","id":"1030300244"},
				{"range":"3","name":"星巴克","lon":"121.5025218","lat":"31.28383854","flow":"31","consume":"43","class":"咖啡厅","id":"1030300245"},
				{"range":"3","name":"DennyHouse＆DCoffee","lon":"121.5248588","lat":"31.30082454","flow":"29","consume":"29","class":"咖啡厅","id":"1030300246"},
				{"range":"3","name":"轻食主义","lon":"121.5124718","lat":"31.29989754","flow":"3","consume":"45","class":"咖啡厅","id":"1030300247"},
				{"range":"3","name":"ROCOCO","lon":"121.5140688","lat":"31.30267154","flow":"4","consume":"-","class":"咖啡厅","id":"1030300248"},
				{"range":"3","name":"星巴克","lon":"121.5005268","lat":"31.31555954","flow":"67","consume":"42","class":"咖啡厅","id":"1030300249"},
				{"range":"3","name":"RiccoCafe","lon":"121.4910788","lat":"31.30585654","flow":"833","consume":"118","class":"咖啡厅","id":"1030300250"},
				{"range":"3","name":"zoocoffee","lon":"121.5140688","lat":"31.30267154","flow":"419","consume":"38","class":"咖啡厅","id":"1030300251"},
				{"range":"3","name":"CoffeeBox","lon":"121.5109768","lat":"31.31087654","flow":"6","consume":"25","class":"咖啡厅","id":"1030300252"},
				{"range":"3","name":"星巴克","lon":"121.5059308","lat":"31.32009054","flow":"46","consume":"38","class":"咖啡厅","id":"1030300253"},
				{"range":"3","name":"胖猫咖啡","lon":"121.4858848","lat":"31.29653254","flow":"144","consume":"58","class":"咖啡厅","id":"1030300254"},
				{"range":"3","name":"学院咖啡馆","lon":"121.5031438","lat":"31.30500354","flow":"112","consume":"44","class":"咖啡厅","id":"1030300255"},
				{"range":"3","name":"CaféPlus咖啡加","lon":"121.5103068","lat":"31.30807854","flow":"83","consume":"33","class":"咖啡厅","id":"1030300256"},
				{"range":"3","name":"Loveis咖啡馆","lon":"121.5208588","lat":"31.29604854","flow":"27","consume":"23","class":"咖啡厅","id":"1030300257"},
				{"range":"3","name":"Goeast","lon":"121.5049098","lat":"31.30496754","flow":"19","consume":"32","class":"咖啡厅","id":"1030300258"},
				{"range":"3","name":"雕刻时光咖啡馆","lon":"121.5031438","lat":"31.30500354","flow":"228","consume":"45","class":"咖啡厅","id":"1030300259"},
				{"range":"3","name":"COSTACOFFEE","lon":"121.5020478","lat":"31.28736954","flow":"58","consume":"39","class":"咖啡厅","id":"1030300260"},
				{"range":"3","name":"ThreeCafe","lon":"121.5103068","lat":"31.30807854","flow":"62","consume":"34","class":"咖啡厅","id":"1030300261"},
				{"range":"3","name":"YIMI咖啡&精酿馆","lon":"121.5005268","lat":"31.31555954","flow":"23","consume":"-","class":"咖啡厅","id":"1030300262"},
				{"range":"3","name":"上岛咖啡","lon":"121.5334958","lat":"31.31380854","flow":"45","consume":"65","class":"咖啡厅","id":"1030300263"},
				{"range":"3","name":"熊猫窝咖啡司","lon":"121.5081038","lat":"31.30869054","flow":"63","consume":"37","class":"咖啡厅","id":"1030300264"},
				{"range":"3","name":"现磨咖啡COFFEE","lon":"121.5123658","lat":"31.30348654","flow":"91","consume":"17","class":"咖啡厅","id":"1030300265"},
				{"range":"3","name":"我去·RUNcoffee分店","lon":"121.5036508","lat":"31.30222654","flow":"22","consume":"33","class":"咖啡厅","id":"1030300266"},
				{"range":"3","name":"D&C咖啡店","lon":"121.5047358","lat":"31.28993454","flow":"12","consume":"-","class":"咖啡厅","id":"1030300267"},
				{"range":"3","name":"上岛咖啡","lon":"121.5158848","lat":"31.31156554","flow":"133","consume":"47","class":"咖啡厅","id":"1030300268"},
				{"range":"3","name":"星空咖啡厅","lon":"121.4996058","lat":"31.29860254","flow":"121","consume":"30","class":"咖啡厅","id":"1030300269"},
				{"range":"3","name":"星巴克","lon":"121.5051708","lat":"31.31862254","flow":"37","consume":"37","class":"咖啡厅","id":"1030300270"},
				{"range":"3","name":"SuperHeroes","lon":"121.5055688","lat":"31.30600354","flow":"37","consume":"107","class":"咖啡厅","id":"1030300271"},
				{"range":"3","name":"熙贤咖啡xixiancoffee","lon":"121.4991348","lat":"31.29611054","flow":"9","consume":"44","class":"咖啡厅","id":"1030300272"},
				{"range":"3","name":"上岛咖啡","lon":"121.4991858","lat":"31.29597854","flow":"274","consume":"64","class":"咖啡厅","id":"1030300273"},
				{"range":"3","name":"UNCAFFÈ","lon":"121.5168678","lat":"31.29939354","flow":"5","consume":"-","class":"咖啡厅","id":"1030300274"},
				{"range":"3","name":"猫主题咖啡馆","lon":"121.5073288","lat":"31.29125154","flow":"1","consume":"71","class":"咖啡厅","id":"1030300275"},
				{"range":"3","name":"必胜客宅急送下午茶","lon":"121.5313628","lat":"31.29669654","flow":"1","consume":"-","class":"咖啡厅","id":"1030300276"},
				{"range":"3","name":"STARBUCKSCOFFEE","lon":"121.5117178","lat":"31.30276654","flow":"7","consume":"-","class":"咖啡厅","id":"1030300277"},
				{"range":"3","name":"纸品咖啡","lon":"121.5140688","lat":"31.30267154","flow":"4","consume":"29","class":"咖啡厅","id":"1030300278"},
				{"range":"3","name":"酷窝咖啡","lon":"121.5059298","lat":"31.30781754","flow":"33","consume":"26","class":"咖啡厅","id":"1030300279"},
				{"range":"3","name":"illy","lon":"121.5086488","lat":"31.30387654","flow":"1","consume":"-","class":"咖啡厅","id":"1030300280"},
				{"range":"3","name":"COFFEETIME","lon":"121.4898688","lat":"31.30319654","flow":"82","consume":"29","class":"咖啡厅","id":"1030300281"},
				{"range":"3","name":"伊诺咖啡","lon":"121.5146078","lat":"31.29065154","flow":"5","consume":"-","class":"咖啡厅","id":"1030300282"},
				{"range":"3","name":"OCEcoffee","lon":"121.5097748","lat":"31.30355254","flow":"13","consume":"31","class":"咖啡厅","id":"1030300283"},
				{"range":"3","name":"臻田咖啡","lon":"121.5249118","lat":"31.30684754","flow":"4","consume":"-","class":"咖啡厅","id":"1030300284"},
				{"range":"3","name":"伊佧仕咖啡","lon":"121.5237548","lat":"31.28138454","flow":"158","consume":"60","class":"咖啡厅","id":"1030300285"},
				{"range":"3","name":"筑＋Cafe","lon":"121.4976958","lat":"31.28887654","flow":"36","consume":"28","class":"咖啡厅","id":"1030300286"},
				{"range":"3","name":"多多尼花园餐厅","lon":"121.5043598","lat":"31.28217254","flow":"10","consume":"26","class":"咖啡厅","id":"1030300287"},
				{"range":"3","name":"CafeMin's","lon":"121.5042658","lat":"31.31074354","flow":"23","consume":"44","class":"咖啡厅","id":"1030300288"},
				{"range":"3","name":"SIMPL简直咖啡","lon":"121.5089698","lat":"31.30709054","flow":"3","consume":"-","class":"咖啡厅","id":"1030300289"},
				{"range":"3","name":"ILOVECHOC","lon":"121.5070858","lat":"31.30659954","flow":"4","consume":"-","class":"咖啡厅","id":"1030300290"},
				{"range":"3","name":"th私房西餐体验馆","lon":"121.5038878","lat":"31.32285254","flow":"27","consume":"-","class":"咖啡厅","id":"1030300291"},
				{"range":"3","name":"McCafé","lon":"121.5279158","lat":"31.31741654","flow":"26","consume":"24","class":"咖啡厅","id":"1030300292"},
				{"range":"3","name":"一点咖啡馆","lon":"121.5035188","lat":"31.28993454","flow":"48","consume":"30","class":"咖啡厅","id":"1030300293"},
				{"range":"3","name":"杰瑞克咖啡","lon":"121.5043318","lat":"31.29881454","flow":"56","consume":"16","class":"咖啡厅","id":"1030300294"},
				{"range":"3","name":"SPRCOFFEE","lon":"121.4894248","lat":"31.30299554","flow":"10","consume":"42","class":"咖啡厅","id":"1030300295"},
				{"range":"3","name":"雅憩休闲咖啡馆","lon":"121.5018728","lat":"31.28454454","flow":"207","consume":"42","class":"咖啡厅","id":"1030300296"},
				{"range":"3","name":"复旦大学大家沙龙","lon":"121.4972438","lat":"31.29483454","flow":"18","consume":"11","class":"咖啡厅","id":"1030300297"},
				{"range":"3","name":"复旦校友创业俱乐部","lon":"121.5065958","lat":"31.30686354","flow":"10","consume":"-","class":"咖啡厅","id":"1030300298"},
				{"range":"3","name":"SSSNAME","lon":"121.5109028","lat":"31.30560754","flow":"2","consume":"-","class":"咖啡厅","id":"1030300299"},
				{"range":"3","name":"星轩咖啡","lon":"121.5080808","lat":"31.30394954","flow":"23","consume":"12","class":"咖啡厅","id":"1030300300"},
				{"range":"3","name":"JERICCOFFEE","lon":"121.5043318","lat":"31.29881454","flow":"1","consume":"-","class":"咖啡厅","id":"1030300301"},
				{"range":"3","name":"LifestyleAR馆","lon":"121.5154528","lat":"31.30127454","flow":"1","consume":"-","class":"咖啡厅","id":"1030300302"},
				{"range":"3","name":"愚谷","lon":"121.4921718","lat":"31.29676054","flow":"2","consume":"-","class":"咖啡厅","id":"1030300303"},
				{"range":"3","name":"源咖啡","lon":"121.5029008","lat":"31.28450054","flow":"13","consume":"19","class":"咖啡厅","id":"1030300304"},
				{"range":"3","name":"锦港咖啡馆","lon":"121.5251758","lat":"31.28568154","flow":"11","consume":"42","class":"咖啡厅","id":"1030300305"},
				{"range":"3","name":"路岛咖啡","lon":"121.5168828","lat":"31.29040454","flow":"3","consume":"-","class":"咖啡厅","id":"1030300306"},
				{"range":"3","name":"薄荷花园","lon":"121.5060178","lat":"31.30617854","flow":"10","consume":"-","class":"咖啡厅","id":"1030300307"},
				{"range":"3","name":"VIIIIICOFFEE","lon":"121.5081038","lat":"31.30869054","flow":"10","consume":"-","class":"咖啡厅","id":"1030300308"},
				{"range":"3","name":"PureFruity","lon":"121.5142138","lat":"31.31081554","flow":"10","consume":"-","class":"咖啡厅","id":"1030300309"},
				{"range":"3","name":"ESQUIRESCOFFEE","lon":"121.5064588","lat":"31.30866254","flow":"10","consume":"-","class":"咖啡厅","id":"1030300310"},
				{"range":"3","name":"dbk咖啡店","lon":"121.4879818","lat":"31.30343554","flow":"10","consume":"-","class":"咖啡厅","id":"1030300311"},
				{"range":"3","name":"SealionsSpaceClub","lon":"121.5088798","lat":"31.30559954","flow":"10","consume":"-","class":"咖啡厅","id":"1030300312"},
				{"range":"3","name":"e1Even","lon":"121.5148078","lat":"31.31084954","flow":"10","consume":"-","class":"咖啡厅","id":"1030300313"},
				{"range":"3","name":"玛丽coffee","lon":"121.5039078","lat":"31.29908854","flow":"10","consume":"-","class":"咖啡厅","id":"1030300314"},
				{"range":"3","name":"STELLA","lon":"121.5039028","lat":"31.30567254","flow":"10","consume":"-","class":"咖啡厅","id":"1030300315"},
				{"range":"3","name":"悠米影时光","lon":"121.5042218","lat":"31.30560154","flow":"10","consume":"-","class":"咖啡厅","id":"1030300316"},
				{"range":"3","name":"雕刻时光咖啡学院","lon":"121.5027148","lat":"31.30542954","flow":"1","consume":"-","class":"咖啡厅","id":"1030300317"},
				{"range":"3","name":"哈拉里咖啡生活馆","lon":"121.5065628","lat":"31.30007254","flow":"15","consume":"10","class":"咖啡厅","id":"1030300318"},
				{"range":"3","name":"TankardCafe","lon":"121.4997408","lat":"31.28101054","flow":"1","consume":"-","class":"咖啡厅","id":"1030300319"},
				{"range":"3","name":"kimi'scafe&restaurant","lon":"121.5312948","lat":"31.29136654","flow":"10","consume":"-","class":"咖啡厅","id":"1030300320"},
				{"range":"3","name":"鱼醋","lon":"121.5086488","lat":"31.30387654","flow":"3","consume":"-","class":"咖啡厅","id":"1030300321"},
				{"range":"3","name":"咕噜猫","lon":"121.5025218","lat":"31.28383854","flow":"10","consume":"-","class":"咖啡厅","id":"1030300322"},
				{"range":"3","name":"德克利咖啡","lon":"121.4916328","lat":"31.31091554","flow":"32","consume":"50","class":"咖啡厅","id":"1030300323"},
				{"range":"3","name":"STARBUCKSCOFFEE","lon":"121.5025218","lat":"31.28383854","flow":"10","consume":"-","class":"咖啡厅","id":"1030300324"},
				{"range":"3","name":"办伴咖啡","lon":"121.5156338","lat":"31.27895754","flow":"10","consume":"-","class":"咖啡厅","id":"1030300325"},
				{"range":"3","name":"樱草花咖啡","lon":"121.4876738","lat":"31.30630854","flow":"10","consume":"-","class":"咖啡厅","id":"1030300326"},
				{"range":"3","name":"Coffeeshop","lon":"121.5141358","lat":"31.28959254","flow":"10","consume":"-","class":"咖啡厅","id":"1030300327"},
				{"range":"3","name":"25°nspecialtycoffee","lon":"121.5093928","lat":"31.29047454","flow":"10","consume":"-","class":"咖啡厅","id":"1030300328"},
				{"range":"3","name":"金融信息实验室","lon":"121.4997608","lat":"31.30779454","flow":"10","consume":"-","class":"咖啡厅","id":"1030300329"},
				{"range":"3","name":"92度咖啡","lon":"121.5005418","lat":"31.31000854","flow":"10","consume":"-","class":"咖啡厅","id":"1030300330"},
				{"range":"3","name":"PACIFICCOFFEE","lon":"121.5278238","lat":"31.31552454","flow":"10","consume":"-","class":"咖啡厅","id":"1030300331"},
				{"range":"3","name":"STARBARSCOFFEE","lon":"121.5024318","lat":"31.31020754","flow":"1","consume":"-","class":"咖啡厅","id":"1030300332"},
				{"range":"3","name":"东方园-咖吧","lon":"121.5273048","lat":"31.31354454","flow":"10","consume":"-","class":"咖啡厅","id":"1030300333"},
				{"range":"3","name":"百步廊咖啡吧","lon":"121.4958968","lat":"31.28920454","flow":"1","consume":"-","class":"咖啡厅","id":"1030300334"},
				{"range":"3","name":"锦兰咖啡馆","lon":"121.5164168","lat":"31.29479954","flow":"1","consume":"-","class":"咖啡厅","id":"1030300335"},
				{"range":"3","name":"菜号驿站","lon":"121.5289768","lat":"31.28633354","flow":"10","consume":"-","class":"咖啡厅","id":"1030300336"},
				{"range":"3","name":"香醇单品咖啡","lon":"121.5000238","lat":"31.28868454","flow":"2","consume":"-","class":"咖啡厅","id":"1030300337"},
				{"range":"3","name":"涟漪咖啡屋","lon":"121.5136018","lat":"31.27975454","flow":"4","consume":"-","class":"咖啡厅","id":"1030300338"},
				{"range":"3","name":"复宣咖啡吧","lon":"121.5045688","lat":"31.30103354","flow":"3","consume":"15","class":"咖啡厅","id":"1030300339"},
				{"range":"3","name":"星咖啡","lon":"121.5272358","lat":"31.28636054","flow":"10","consume":"-","class":"咖啡厅","id":"1030300340"},
				{"range":"3","name":"现磨咖啡","lon":"121.5121248","lat":"31.29963254","flow":"10","consume":"-","class":"咖啡厅","id":"1030300341"},
				{"range":"3","name":"Theme咖啡","lon":"121.5044638","lat":"31.28297554","flow":"10","consume":"-","class":"咖啡厅","id":"1030300342"},
				{"range":"3","name":"咖啡码头","lon":"121.5024428","lat":"31.32495254","flow":"10","consume":"-","class":"咖啡厅","id":"1030300343"},
				{"range":"3","name":"锦江都城外滩经典酒店双人下午茶","lon":"121.5041188","lat":"31.28772654","flow":"10","consume":"-","class":"咖啡厅","id":"1030300344"},
				{"range":"3","name":"星享送咖啡","lon":"121.5214498","lat":"31.31985454","flow":"10","consume":"-","class":"咖啡厅","id":"1030300345"},
				{"range":"3","name":"棋牌足浴休闲茶室咖啡","lon":"121.5054378","lat":"31.28003654","flow":"10","consume":"-","class":"咖啡厅","id":"1030300346"},
				{"range":"3","name":"众孵咖啡","lon":"121.5258628","lat":"31.29947054","flow":"10","consume":"-","class":"咖啡厅","id":"1030300347"},
				{"range":"3","name":"饰季园咖啡","lon":"121.5038878","lat":"31.32285254","flow":"10","consume":"-","class":"咖啡厅","id":"1030300348"},
				{"range":"3","name":"肯诺咖啡","lon":"121.5092588","lat":"31.27759454","flow":"10","consume":"-","class":"咖啡厅","id":"1030300349"},
				{"range":"3","name":"taper咖啡馆","lon":"121.5095518","lat":"31.28047154","flow":"10","consume":"-","class":"咖啡厅","id":"1030300350"},
				{"range":"3","name":"coffeebox","lon":"121.5145638","lat":"31.28998954","flow":"10","consume":"-","class":"咖啡厅","id":"1030300351"},
				{"range":"3","name":"CafeTTOMA暂停营业","lon":"121.5248588","lat":"31.30082454","flow":"1133","consume":"43","class":"咖啡厅","id":"1030300352"},
				{"range":"3","name":"西摩兰咖啡馆暂停营业","lon":"121.5069928","lat":"31.28328754","flow":"1","consume":"-","class":"咖啡厅","id":"1030300353"},
				{"range":"3","name":"星巴克","lon":"121.5089708","lat":"31.30434954","flow":"1633","consume":"40","class":"咖啡厅","id":"1030300354"},
				{"range":"3","name":"ICCAFE","lon":"121.5155118","lat":"31.30067054","flow":"10","consume":"-","class":"咖啡厅","id":"1030300355"},
				{"range":"3","name":"enocoffee","lon":"121.5154528","lat":"31.30127454","flow":"10","consume":"-","class":"咖啡厅","id":"1030300356"},
				{"range":"3","name":"lamade拉莫达","lon":"121.5140688","lat":"31.30267154","flow":"1","consume":"-","class":"咖啡厅","id":"1030300357"},
				{"range":"3","name":"LukaMacaronCafe","lon":"121.5037158","lat":"31.30541554","flow":"546","consume":"75","class":"咖啡厅","id":"1030300358"},
				{"range":"3","name":"Flyingcafe咖飞馆","lon":"121.4953258","lat":"31.29260454","flow":"70","consume":"26","class":"咖啡厅","id":"1030300359"},
				{"range":"3","name":"果岭酒家","lon":"121.4860748","lat":"31.29211054","flow":"132","consume":"94","class":"咖啡厅","id":"1030300360"},
				{"range":"3","name":"漫香咖啡MXCOFFEE","lon":"121.4837798","lat":"31.29787354","flow":"10","consume":"-","class":"咖啡厅","id":"1030300361"},
				{"range":"3","name":"COURSECOFFEE分店","lon":"121.4942658","lat":"31.29404554","flow":"2","consume":"-","class":"咖啡厅","id":"1030300362"},
				{"range":"3","name":"四季咖啡厅","lon":"121.4861848","lat":"31.29060954","flow":"1","consume":"-","class":"咖啡厅","id":"1030300363"},
				{"range":"3","name":"CUSTOCoffee","lon":"121.5122388","lat":"31.29576154","flow":"2","consume":"-","class":"咖啡厅","id":"1030300364"},
				{"range":"3","name":"咖啡180","lon":"121.4833488","lat":"31.29873854","flow":"10","consume":"-","class":"咖啡厅","id":"1030300365"},
				{"range":"3","name":"向日葵咖啡","lon":"121.4952158","lat":"31.29254554","flow":"10","consume":"-","class":"咖啡厅","id":"1030300366"},
				{"range":"3","name":"果岭酒家","lon":"121.4860748","lat":"31.29211054","flow":"132","consume":"94","class":"咖啡厅","id":"1030300367"},
				{"range":"3","name":"Flyingcafe咖飞馆","lon":"121.4953258","lat":"31.29260454","flow":"70","consume":"26","class":"咖啡厅","id":"1030300368"},
				{"range":"3","name":"果岭酒家","lon":"121.4860748","lat":"31.29211054","flow":"132","consume":"94","class":"咖啡厅","id":"1030300369"},
				{"range":"3","name":"漫香咖啡MXCOFFEE","lon":"121.4837798","lat":"31.29787354","flow":"10","consume":"-","class":"咖啡厅","id":"1030300370"},
				{"range":"3","name":"COURSECOFFEE分店","lon":"121.4942658","lat":"31.29404554","flow":"2","consume":"-","class":"咖啡厅","id":"1030300371"},
				{"range":"3","name":"四季咖啡厅","lon":"121.4861848","lat":"31.29060954","flow":"1","consume":"-","class":"咖啡厅","id":"1030300372"},
				{"range":"3","name":"CUSTOCoffee","lon":"121.5122388","lat":"31.29576154","flow":"2","consume":"-","class":"咖啡厅","id":"1030300373"},
				{"range":"3","name":"咖啡180","lon":"121.4833488","lat":"31.29873854","flow":"10","consume":"-","class":"咖啡厅","id":"1030300374"},
				{"range":"3","name":"向日葵咖啡","lon":"121.4952158","lat":"31.29254554","flow":"10","consume":"-","class":"咖啡厅","id":"1030300375"},
				{"range":"5","name":"猫次元咖啡小酌屋","lon":"121.5331408","lat":"31.26712354","flow":"423","consume":"50","class":"咖啡厅","id":"1030500001"},
				{"range":"5","name":"星巴克","lon":"121.5119008","lat":"31.27673954","flow":"529","consume":"37","class":"咖啡厅","id":"1030500002"},
				{"range":"5","name":"星巴克","lon":"121.5348068","lat":"31.31414154","flow":"97","consume":"38","class":"咖啡厅","id":"1030500003"},
				{"range":"5","name":"麦隆咖啡mellowercoffee","lon":"121.5127928","lat":"31.34037954","flow":"32","consume":"33","class":"咖啡厅","id":"1030500004"},
				{"range":"5","name":"星巴克","lon":"121.5394648","lat":"31.27671554","flow":"189","consume":"40","class":"咖啡厅","id":"1030500005"},
				{"range":"5","name":"星巴克","lon":"121.5410908","lat":"31.33042154","flow":"113","consume":"38","class":"咖啡厅","id":"1030500006"},
				{"range":"5","name":"星巴克","lon":"121.5210628","lat":"31.26308754","flow":"112","consume":"43","class":"咖啡厅","id":"1030500007"},
				{"range":"5","name":"星巴克旭辉广场","lon":"121.5056858","lat":"31.27515054","flow":"21","consume":"-","class":"咖啡厅","id":"1030500008"},
				{"range":"5","name":"VitalTea源素茶","lon":"121.5074978","lat":"31.26263654","flow":"174","consume":"32","class":"咖啡厅","id":"1030500009"},
				{"range":"5","name":"星巴克","lon":"121.5068488","lat":"31.26357954","flow":"327","consume":"40","class":"咖啡厅","id":"1030500010"},
				{"range":"5","name":"星巴克","lon":"121.5331408","lat":"31.26712354","flow":"344","consume":"39","class":"咖啡厅","id":"1030500011"},
				{"range":"5","name":"一口轻食","lon":"121.5207528","lat":"31.27611854","flow":"18","consume":"24","class":"咖啡厅","id":"1030500012"},
				{"range":"5","name":"星巴克","lon":"121.5365918","lat":"31.27744154","flow":"28","consume":"38","class":"咖啡厅","id":"1030500013"},
				{"range":"5","name":"TimeTable研磨时光咖啡","lon":"121.5119008","lat":"31.27673954","flow":"249","consume":"36","class":"咖啡厅","id":"1030500014"},
				{"range":"5","name":"ZOOCOFFEE","lon":"121.5057488","lat":"31.27513954","flow":"197","consume":"50","class":"咖啡厅","id":"1030500015"},
				{"range":"5","name":"BarnesGarden","lon":"121.5292368","lat":"31.26961154","flow":"20","consume":"-","class":"咖啡厅","id":"1030500016"},
				{"range":"5","name":"幸福海岸","lon":"121.5318918","lat":"31.27236954","flow":"463","consume":"50","class":"咖啡厅","id":"1030500017"},
				{"range":"5","name":"星巴克","lon":"121.5115718","lat":"31.26558754","flow":"83","consume":"39","class":"咖啡厅","id":"1030500018"},
				{"range":"5","name":"BuzzTimeCoffee","lon":"121.5146598","lat":"31.27683254","flow":"38","consume":"25","class":"咖啡厅","id":"1030500019"},
				{"range":"5","name":"上岛咖啡","lon":"121.5109238","lat":"31.27658654","flow":"417","consume":"78","class":"咖啡厅","id":"1030500020"},
				{"range":"5","name":"Ausberrycafe澳柏瑞牧场咖啡","lon":"121.5119008","lat":"31.27673954","flow":"39","consume":"29","class":"咖啡厅","id":"1030500021"},
				{"range":"5","name":"野姜先生主题咖啡店","lon":"121.5416188","lat":"31.31081954","flow":"79","consume":"30","class":"咖啡厅","id":"1030500022"},
				{"range":"5","name":"一本喵咖啡馆","lon":"121.5148438","lat":"31.27600654","flow":"11","consume":"-","class":"咖啡厅","id":"1030500023"},
				{"range":"5","name":"Viagem","lon":"121.5128838","lat":"31.34096454","flow":"81","consume":"61","class":"咖啡厅","id":"1030500024"},
				{"range":"5","name":"咪咕咖啡","lon":"121.5253258","lat":"31.26251254","flow":"20","consume":"30","class":"咖啡厅","id":"1030500025"},
				{"range":"5","name":"十一坊","lon":"121.5034108","lat":"31.27038754","flow":"25","consume":"28","class":"咖啡厅","id":"1030500026"},
				{"range":"5","name":"Motucoffee模咖啡","lon":"121.5154388","lat":"31.27673254","flow":"38","consume":"31","class":"咖啡厅","id":"1030500027"},
				{"range":"5","name":"MofeeExpress","lon":"121.5391268","lat":"31.27749854","flow":"12","consume":"-","class":"咖啡厅","id":"1030500028"},
				{"range":"5","name":"DESTINYCOFFEE","lon":"121.5422688","lat":"31.31073154","flow":"153","consume":"48","class":"咖啡厅","id":"1030500029"},
				{"range":"5","name":"曼莎咖啡","lon":"121.5201638","lat":"31.26644954","flow":"79","consume":"70","class":"咖啡厅","id":"1030500030"},
				{"range":"5","name":"樱乔咖啡","lon":"121.5028878","lat":"31.27339254","flow":"93","consume":"48","class":"咖啡厅","id":"1030500031"},
				{"range":"5","name":"TOUSLESHOURS","lon":"121.5330118","lat":"31.26728154","flow":"10","consume":"-","class":"咖啡厅","id":"1030500032"},
				{"range":"5","name":"星鹿咖啡","lon":"121.5087508","lat":"31.27643854","flow":"57","consume":"22","class":"咖啡厅","id":"1030500033"},
				{"range":"5","name":"西摩兰咖啡","lon":"121.5392118","lat":"31.27722554","flow":"18","consume":"45","class":"咖啡厅","id":"1030500034"},
				{"range":"5","name":"NewLinkCoffee","lon":"121.4896358","lat":"31.33877254","flow":"5","consume":"18","class":"咖啡厅","id":"1030500035"},
				{"range":"5","name":"SaintUCafe","lon":"121.5317318","lat":"31.27315654","flow":"37","consume":"34","class":"咖啡厅","id":"1030500036"},
				{"range":"5","name":"3w咖啡","lon":"121.5305368","lat":"31.27380454","flow":"15","consume":"-","class":"咖啡厅","id":"1030500037"},
				{"range":"5","name":"明玉咖啡","lon":"121.5107628","lat":"31.26763554","flow":"13","consume":"-","class":"咖啡厅","id":"1030500038"},
				{"range":"5","name":"Dreamcafe&bar","lon":"121.5198958","lat":"31.27510354","flow":"25","consume":"-","class":"咖啡厅","id":"1030500039"},
				{"range":"5","name":"McCafé","lon":"121.5249958","lat":"31.28136354","flow":"12","consume":"24","class":"咖啡厅","id":"1030500040"},
				{"range":"5","name":"咖啡码头","lon":"121.5305368","lat":"31.27380454","flow":"1","consume":"-","class":"咖啡厅","id":"1030500041"},
				{"range":"5","name":"孵咖啡","lon":"121.5452698","lat":"31.31030454","flow":"2","consume":"-","class":"咖啡厅","id":"1030500042"},
				{"range":"5","name":"长岛咖啡店","lon":"121.5285688","lat":"31.27127854","flow":"2","consume":"-","class":"咖啡厅","id":"1030500043"},
				{"range":"5","name":"磨研時光咖啡","lon":"121.5138068","lat":"31.27723754","flow":"4","consume":"-","class":"咖啡厅","id":"1030500044"},
				{"range":"5","name":"1906咖啡","lon":"121.5411088","lat":"31.30157254","flow":"2","consume":"-","class":"咖啡厅","id":"1030500045"},
				{"range":"5","name":"MezomdCafe","lon":"121.5029458","lat":"31.26521454","flow":"13","consume":"25","class":"咖啡厅","id":"1030500046"},
				{"range":"5","name":"STARBUCKSCOFFEE","lon":"121.5391268","lat":"31.27749854","flow":"1","consume":"-","class":"咖啡厅","id":"1030500047"},
				{"range":"5","name":"咖啡吧","lon":"121.5337078","lat":"31.28565454","flow":"1","consume":"-","class":"咖啡厅","id":"1030500048"},
				{"range":"5","name":"STARBUCKSCOFFEE","lon":"121.5330118","lat":"31.26728154","flow":"10","consume":"-","class":"咖啡厅","id":"1030500049"},
				{"range":"5","name":"咖啡码头","lon":"121.5208028","lat":"31.26554354","flow":"2","consume":"-","class":"咖啡厅","id":"1030500050"},
				{"range":"5","name":"麦咖啡","lon":"121.5362058","lat":"31.26879654","flow":"6","consume":"30","class":"咖啡厅","id":"1030500051"},
				{"range":"5","name":"MENSACOFFEE","lon":"121.5203828","lat":"31.26659354","flow":"1","consume":"-","class":"咖啡厅","id":"1030500052"},
				{"range":"5","name":"LOXCAFE","lon":"121.4974828","lat":"31.27581854","flow":"2","consume":"-","class":"咖啡厅","id":"1030500053"},
				{"range":"5","name":"咖啡牛排简餐","lon":"121.4970258","lat":"31.27639054","flow":"1","consume":"-","class":"咖啡厅","id":"1030500054"},
				{"range":"5","name":"创客空间","lon":"121.5298478","lat":"31.27179154","flow":"10","consume":"-","class":"咖啡厅","id":"1030500055"},
				{"range":"5","name":"Murphy'sForestCafeArtiste","lon":"121.5203248","lat":"31.26531554","flow":"10","consume":"-","class":"咖啡厅","id":"1030500056"},
				{"range":"5","name":"COFFEEHOUSE","lon":"121.5036608","lat":"31.26874954","flow":"10","consume":"-","class":"咖啡厅","id":"1030500057"},
				{"range":"5","name":"海伦咖啡馆","lon":"121.5107008","lat":"31.27651154","flow":"10","consume":"-","class":"咖啡厅","id":"1030500058"},
				{"range":"5","name":"意大利面甜品沙拉咖啡","lon":"121.5081438","lat":"31.27593154","flow":"10","consume":"-","class":"咖啡厅","id":"1030500059"},
				{"range":"5","name":"茶美酒咖啡","lon":"121.5208018","lat":"31.26555154","flow":"10","consume":"-","class":"咖啡厅","id":"1030500060"},
				{"range":"5","name":"雨弓","lon":"121.5507818","lat":"31.29019254","flow":"41","consume":"27","class":"咖啡厅","id":"1030500061"},
				{"range":"5","name":"艾达吉奥cafeadagio","lon":"121.5391268","lat":"31.27749854","flow":"10","consume":"-","class":"咖啡厅","id":"1030500062"},
				{"range":"5","name":"智汇商务楼13号楼-商务咖吧","lon":"121.5287378","lat":"31.33359654","flow":"10","consume":"-","class":"咖啡厅","id":"1030500063"},
				{"range":"5","name":"雨润咖啡","lon":"121.5329438","lat":"31.33060254","flow":"10","consume":"-","class":"咖啡厅","id":"1030500064"},
				{"range":"5","name":"雀巢咖啡","lon":"121.4887828","lat":"31.28418854","flow":"10","consume":"-","class":"咖啡厅","id":"1030500065"},
				{"range":"5","name":"idpast丿时光","lon":"121.5323148","lat":"31.27654454","flow":"10","consume":"-","class":"咖啡厅","id":"1030500066"},
				{"range":"5","name":"星巴巴咖啡","lon":"121.5094318","lat":"31.26243954","flow":"10","consume":"-","class":"咖啡厅","id":"1030500067"},
				{"range":"5","name":"咖啡杯","lon":"121.5471608","lat":"31.32285154","flow":"10","consume":"-","class":"咖啡厅","id":"1030500068"},
				{"range":"5","name":"北苑咖啡","lon":"121.4961978","lat":"31.26240254","flow":"10","consume":"-","class":"咖啡厅","id":"1030500069"},
				{"range":"5","name":"兆联天下飞羽社创业苗圃","lon":"121.5394188","lat":"31.27677454","flow":"10","consume":"-","class":"咖啡厅","id":"1030500070"},
				{"range":"5","name":"7THMOONCOFFEE","lon":"121.5240738","lat":"31.28011054","flow":"425","consume":"44","class":"咖啡厅","id":"1030500071"},
				{"range":"5","name":"花房咖啡暂停营业","lon":"121.5296548","lat":"31.26984954","flow":"12","consume":"30","class":"咖啡厅","id":"1030500072"},
				{"range":"5","name":"CaffeBene咖啡陪你","lon":"121.5330118","lat":"31.26728154","flow":"1078","consume":"39","class":"咖啡厅","id":"1030500073"},
				{"range":"5","name":"布如咖啡","lon":"121.5428668","lat":"31.27398854","flow":"2","consume":"-","class":"咖啡厅","id":"1030500074"},
				{"range":"5","name":"PetMan宠物咖啡馆","lon":"121.5312588","lat":"31.26765954","flow":"10","consume":"-","class":"咖啡厅","id":"1030500075"},
				{"range":"5","name":"星巴克","lon":"121.5119008","lat":"31.27673954","flow":"529","consume":"37","class":"咖啡厅","id":"1030500076"},
				{"range":"5","name":"星巴克","lon":"121.5348068","lat":"31.31414154","flow":"97","consume":"38","class":"咖啡厅","id":"1030500077"},
				{"range":"5","name":"星巴克","lon":"121.5394648","lat":"31.27671554","flow":"189","consume":"40","class":"咖啡厅","id":"1030500078"},
				{"range":"5","name":"星巴克","lon":"121.5210628","lat":"31.26308754","flow":"112","consume":"43","class":"咖啡厅","id":"1030500079"},
				{"range":"5","name":"星巴克","lon":"121.5068488","lat":"31.26357954","flow":"327","consume":"40","class":"咖啡厅","id":"1030500080"},
				{"range":"5","name":"星巴克","lon":"121.5331408","lat":"31.26712354","flow":"344","consume":"39","class":"咖啡厅","id":"1030500081"},
				{"range":"5","name":"星巴克","lon":"121.5365918","lat":"31.27744154","flow":"28","consume":"38","class":"咖啡厅","id":"1030500082"},
				{"range":"5","name":"幸福海岸","lon":"121.5318918","lat":"31.27236954","flow":"463","consume":"50","class":"咖啡厅","id":"1030500083"},
				{"range":"5","name":"星巴克","lon":"121.5115718","lat":"31.26558754","flow":"83","consume":"39","class":"咖啡厅","id":"1030500084"},
				{"range":"5","name":"上岛咖啡","lon":"121.5109238","lat":"31.27658654","flow":"417","consume":"78","class":"咖啡厅","id":"1030500085"},
				{"range":"5","name":"MezomdCafe","lon":"121.5029458","lat":"31.26521454","flow":"13","consume":"25","class":"咖啡厅","id":"1030500086"},
				{"range":"5","name":"猫次元咖啡小酌屋","lon":"121.5331408","lat":"31.26712354","flow":"423","consume":"50","class":"咖啡厅","id":"1030500087"},
				{"range":"5","name":"星巴克","lon":"121.5119008","lat":"31.27673954","flow":"529","consume":"37","class":"咖啡厅","id":"1030500088"},
				{"range":"5","name":"星巴克","lon":"121.5348068","lat":"31.31414154","flow":"97","consume":"38","class":"咖啡厅","id":"1030500089"},
				{"range":"5","name":"麦隆咖啡mellowercoffee","lon":"121.5127928","lat":"31.34037954","flow":"32","consume":"33","class":"咖啡厅","id":"1030500090"},
				{"range":"5","name":"星巴克","lon":"121.5394648","lat":"31.27671554","flow":"189","consume":"40","class":"咖啡厅","id":"1030500091"},
				{"range":"5","name":"星巴克","lon":"121.5410908","lat":"31.33042154","flow":"113","consume":"38","class":"咖啡厅","id":"1030500092"},
				{"range":"5","name":"星巴克","lon":"121.5210628","lat":"31.26308754","flow":"112","consume":"43","class":"咖啡厅","id":"1030500093"},
				{"range":"5","name":"星巴克旭辉广场","lon":"121.5056858","lat":"31.27515054","flow":"21","consume":"-","class":"咖啡厅","id":"1030500094"},
				{"range":"5","name":"VitalTea源素茶","lon":"121.5074978","lat":"31.26263654","flow":"174","consume":"32","class":"咖啡厅","id":"1030500095"},
				{"range":"5","name":"星巴克","lon":"121.5068488","lat":"31.26357954","flow":"327","consume":"40","class":"咖啡厅","id":"1030500096"},
				{"range":"5","name":"星巴克","lon":"121.5331408","lat":"31.26712354","flow":"344","consume":"39","class":"咖啡厅","id":"1030500097"},
				{"range":"5","name":"一口轻食","lon":"121.5207528","lat":"31.27611854","flow":"18","consume":"24","class":"咖啡厅","id":"1030500098"},
				{"range":"5","name":"星巴克","lon":"121.5365918","lat":"31.27744154","flow":"28","consume":"38","class":"咖啡厅","id":"1030500099"},
				{"range":"5","name":"TimeTable研磨时光咖啡","lon":"121.5119008","lat":"31.27673954","flow":"249","consume":"36","class":"咖啡厅","id":"1030500100"},
				{"range":"5","name":"ZOOCOFFEE","lon":"121.5057488","lat":"31.27513954","flow":"197","consume":"50","class":"咖啡厅","id":"1030500101"},
				{"range":"5","name":"BarnesGarden","lon":"121.5292368","lat":"31.26961154","flow":"20","consume":"-","class":"咖啡厅","id":"1030500102"},
				{"range":"5","name":"幸福海岸","lon":"121.5318918","lat":"31.27236954","flow":"463","consume":"50","class":"咖啡厅","id":"1030500103"},
				{"range":"5","name":"星巴克","lon":"121.5115718","lat":"31.26558754","flow":"83","consume":"39","class":"咖啡厅","id":"1030500104"},
				{"range":"5","name":"BuzzTimeCoffee","lon":"121.5146598","lat":"31.27683254","flow":"38","consume":"25","class":"咖啡厅","id":"1030500105"},
				{"range":"5","name":"上岛咖啡","lon":"121.5109238","lat":"31.27658654","flow":"417","consume":"78","class":"咖啡厅","id":"1030500106"},
				{"range":"5","name":"星巴克","lon":"121.5168478","lat":"31.33717354","flow":"3","consume":"-","class":"咖啡厅","id":"1030500107"},
				{"range":"5","name":"太平洋咖啡","lon":"121.5078358","lat":"31.26312054","flow":"387","consume":"35","class":"咖啡厅","id":"1030500108"},
				{"range":"5","name":"质馆咖啡","lon":"121.5078358","lat":"31.26312054","flow":"16","consume":"22","class":"咖啡厅","id":"1030500109"},
				{"range":"5","name":"淳质咖啡","lon":"121.5206828","lat":"31.26549954","flow":"92","consume":"36","class":"咖啡厅","id":"1030500110"},
				{"range":"5","name":"Ausberrycafe澳柏瑞牧场咖啡","lon":"121.5119008","lat":"31.27673954","flow":"39","consume":"29","class":"咖啡厅","id":"1030500111"},
				{"range":"5","name":"野姜先生主题咖啡店","lon":"121.5416188","lat":"31.31081954","flow":"79","consume":"30","class":"咖啡厅","id":"1030500112"},
				{"range":"5","name":"一本喵咖啡馆","lon":"121.5148438","lat":"31.27600654","flow":"11","consume":"-","class":"咖啡厅","id":"1030500113"},
				{"range":"5","name":"Viagem","lon":"121.5128838","lat":"31.34096454","flow":"81","consume":"61","class":"咖啡厅","id":"1030500114"},
				{"range":"5","name":"咪咕咖啡","lon":"121.5253258","lat":"31.26251254","flow":"20","consume":"30","class":"咖啡厅","id":"1030500115"},
				{"range":"5","name":"十一坊","lon":"121.5034108","lat":"31.27038754","flow":"25","consume":"28","class":"咖啡厅","id":"1030500116"},
				{"range":"5","name":"Motucoffee模咖啡","lon":"121.5154388","lat":"31.27673254","flow":"38","consume":"31","class":"咖啡厅","id":"1030500117"},
				{"range":"5","name":"MofeeExpress","lon":"121.5391268","lat":"31.27749854","flow":"12","consume":"-","class":"咖啡厅","id":"1030500118"},
				{"range":"5","name":"DESTINYCOFFEE","lon":"121.5422688","lat":"31.31073154","flow":"153","consume":"48","class":"咖啡厅","id":"1030500119"},
				{"range":"5","name":"曼莎咖啡","lon":"121.5201638","lat":"31.26644954","flow":"79","consume":"70","class":"咖啡厅","id":"1030500120"},
				{"range":"5","name":"樱乔咖啡","lon":"121.5028878","lat":"31.27339254","flow":"93","consume":"48","class":"咖啡厅","id":"1030500121"},
				{"range":"5","name":"TOUSLESHOURS","lon":"121.5330118","lat":"31.26728154","flow":"10","consume":"-","class":"咖啡厅","id":"1030500122"},
				{"range":"5","name":"星鹿咖啡","lon":"121.5087508","lat":"31.27643854","flow":"57","consume":"22","class":"咖啡厅","id":"1030500123"},
				{"range":"5","name":"西摩兰咖啡","lon":"121.5392118","lat":"31.27722554","flow":"18","consume":"45","class":"咖啡厅","id":"1030500124"},
				{"range":"5","name":"NewLinkCoffee","lon":"121.4896358","lat":"31.33877254","flow":"5","consume":"18","class":"咖啡厅","id":"1030500125"},
				{"range":"5","name":"SaintUCafe","lon":"121.5317318","lat":"31.27315654","flow":"37","consume":"34","class":"咖啡厅","id":"1030500126"},
				{"range":"5","name":"3w咖啡","lon":"121.5305368","lat":"31.27380454","flow":"15","consume":"-","class":"咖啡厅","id":"1030500127"},
				{"range":"5","name":"明玉咖啡","lon":"121.5107628","lat":"31.26763554","flow":"13","consume":"-","class":"咖啡厅","id":"1030500128"},
				{"range":"5","name":"Dreamcafe&bar","lon":"121.5198958","lat":"31.27510354","flow":"25","consume":"-","class":"咖啡厅","id":"1030500129"},
				{"range":"5","name":"McCafé","lon":"121.5249958","lat":"31.28136354","flow":"12","consume":"24","class":"咖啡厅","id":"1030500130"},
				{"range":"5","name":"咖啡码头","lon":"121.5305368","lat":"31.27380454","flow":"1","consume":"-","class":"咖啡厅","id":"1030500131"},
				{"range":"5","name":"孵咖啡","lon":"121.5452698","lat":"31.31030454","flow":"2","consume":"-","class":"咖啡厅","id":"1030500132"},
				{"range":"5","name":"长岛咖啡店","lon":"121.5285688","lat":"31.27127854","flow":"2","consume":"-","class":"咖啡厅","id":"1030500133"},
				{"range":"5","name":"磨研時光咖啡","lon":"121.5138068","lat":"31.27723754","flow":"4","consume":"-","class":"咖啡厅","id":"1030500134"},
				{"range":"5","name":"1906咖啡","lon":"121.5411088","lat":"31.30157254","flow":"2","consume":"-","class":"咖啡厅","id":"1030500135"},
				{"range":"5","name":"MezomdCafe","lon":"121.5029458","lat":"31.26521454","flow":"13","consume":"25","class":"咖啡厅","id":"1030500136"},
				{"range":"5","name":"STARBUCKSCOFFEE","lon":"121.5391268","lat":"31.27749854","flow":"1","consume":"-","class":"咖啡厅","id":"1030500137"},
				{"range":"5","name":"咖啡吧","lon":"121.5337078","lat":"31.28565454","flow":"1","consume":"-","class":"咖啡厅","id":"1030500138"},
				{"range":"5","name":"STARBUCKSCOFFEE","lon":"121.5330118","lat":"31.26728154","flow":"10","consume":"-","class":"咖啡厅","id":"1030500139"},
				{"range":"5","name":"咖啡码头","lon":"121.5208028","lat":"31.26554354","flow":"2","consume":"-","class":"咖啡厅","id":"1030500140"},
				{"range":"5","name":"麦咖啡","lon":"121.5362058","lat":"31.26879654","flow":"6","consume":"30","class":"咖啡厅","id":"1030500141"},
				{"range":"5","name":"MENSACOFFEE","lon":"121.5203828","lat":"31.26659354","flow":"1","consume":"-","class":"咖啡厅","id":"1030500142"},
				{"range":"5","name":"LOXCAFE","lon":"121.4974828","lat":"31.27581854","flow":"2","consume":"-","class":"咖啡厅","id":"1030500143"},
				{"range":"5","name":"咖啡牛排简餐","lon":"121.4970258","lat":"31.27639054","flow":"1","consume":"-","class":"咖啡厅","id":"1030500144"},
				{"range":"5","name":"创客空间","lon":"121.5298478","lat":"31.27179154","flow":"10","consume":"-","class":"咖啡厅","id":"1030500145"},
				{"range":"5","name":"Murphy'sForestCafeArtiste","lon":"121.5203248","lat":"31.26531554","flow":"10","consume":"-","class":"咖啡厅","id":"1030500146"},
				{"range":"5","name":"COFFEEHOUSE","lon":"121.5036608","lat":"31.26874954","flow":"10","consume":"-","class":"咖啡厅","id":"1030500147"},
				{"range":"5","name":"海伦咖啡馆","lon":"121.5107008","lat":"31.27651154","flow":"10","consume":"-","class":"咖啡厅","id":"1030500148"},
				{"range":"5","name":"意大利面甜品沙拉咖啡","lon":"121.5081438","lat":"31.27593154","flow":"10","consume":"-","class":"咖啡厅","id":"1030500149"},
				{"range":"5","name":"茶美酒咖啡","lon":"121.5208018","lat":"31.26555154","flow":"10","consume":"-","class":"咖啡厅","id":"1030500150"},
				{"range":"5","name":"雨弓","lon":"121.5507818","lat":"31.29019254","flow":"41","consume":"27","class":"咖啡厅","id":"1030500151"},
				{"range":"5","name":"艾达吉奥cafeadagio","lon":"121.5391268","lat":"31.27749854","flow":"10","consume":"-","class":"咖啡厅","id":"1030500152"},
				{"range":"5","name":"智汇商务楼13号楼-商务咖吧","lon":"121.5287378","lat":"31.33359654","flow":"10","consume":"-","class":"咖啡厅","id":"1030500153"},
				{"range":"5","name":"雨润咖啡","lon":"121.5329438","lat":"31.33060254","flow":"10","consume":"-","class":"咖啡厅","id":"1030500154"},
				{"range":"5","name":"雀巢咖啡","lon":"121.4887828","lat":"31.28418854","flow":"10","consume":"-","class":"咖啡厅","id":"1030500155"},
				{"range":"5","name":"idpast丿时光","lon":"121.5323148","lat":"31.27654454","flow":"10","consume":"-","class":"咖啡厅","id":"1030500156"},
				{"range":"5","name":"星巴巴咖啡","lon":"121.5094318","lat":"31.26243954","flow":"10","consume":"-","class":"咖啡厅","id":"1030500157"},
				{"range":"5","name":"咖啡杯","lon":"121.5471608","lat":"31.32285154","flow":"10","consume":"-","class":"咖啡厅","id":"1030500158"},
				{"range":"5","name":"北苑咖啡","lon":"121.4961978","lat":"31.26240254","flow":"10","consume":"-","class":"咖啡厅","id":"1030500159"},
				{"range":"5","name":"兆联天下飞羽社创业苗圃","lon":"121.5394188","lat":"31.27677454","flow":"10","consume":"-","class":"咖啡厅","id":"1030500160"},
				{"range":"5","name":"7THMOONCOFFEE","lon":"121.5240738","lat":"31.28011054","flow":"425","consume":"44","class":"咖啡厅","id":"1030500161"},
				{"range":"5","name":"花房咖啡暂停营业","lon":"121.5296548","lat":"31.26984954","flow":"12","consume":"30","class":"咖啡厅","id":"1030500162"},
				{"range":"5","name":"CaffeBene咖啡陪你","lon":"121.5330118","lat":"31.26728154","flow":"1078","consume":"39","class":"咖啡厅","id":"1030500163"},
				{"range":"5","name":"布如咖啡","lon":"121.5428668","lat":"31.27398854","flow":"2","consume":"-","class":"咖啡厅","id":"1030500164"},
				{"range":"5","name":"PetMan宠物咖啡馆","lon":"121.5312588","lat":"31.26765954","flow":"10","consume":"-","class":"咖啡厅","id":"1030500165"},
				{"range":"5","name":"ROOM127濡沫咖啡","lon":"121.4750518","lat":"31.28448954","flow":"290","consume":"22","class":"咖啡厅","id":"1030500166"},
				{"range":"5","name":"InsiderCoffee","lon":"121.4789578","lat":"31.29312354","flow":"161","consume":"35","class":"咖啡厅","id":"1030500167"},
				{"range":"5","name":"WCAFE","lon":"121.4798118","lat":"31.27009254","flow":"40","consume":"43","class":"咖啡厅","id":"1030500168"},
				{"range":"5","name":"星巴克","lon":"121.4870178","lat":"31.27476554","flow":"28","consume":"37","class":"咖啡厅","id":"1030500169"},
				{"range":"5","name":"ZOOCOFFEE","lon":"121.5039218","lat":"31.26704154","flow":"91","consume":"40","class":"咖啡厅","id":"1030500170"},
				{"range":"5","name":"星巴克","lon":"121.4945258","lat":"31.26522354","flow":"80","consume":"37","class":"咖啡厅","id":"1030500171"},
				{"range":"5","name":"FASSCOCOFFEE","lon":"121.4859898","lat":"31.26573554","flow":"72","consume":"29","class":"咖啡厅","id":"1030500172"},
				{"range":"5","name":"Rico'scafe","lon":"121.4760058","lat":"31.27813354","flow":"218","consume":"50","class":"咖啡厅","id":"1030500173"},
				{"range":"5","name":"星巴克","lon":"121.4704868","lat":"31.29726854","flow":"55","consume":"39","class":"咖啡厅","id":"1030500174"},
				{"range":"5","name":"星巴克","lon":"121.4779098","lat":"31.29290354","flow":"265","consume":"38","class":"咖啡厅","id":"1030500175"},
				{"range":"5","name":"星巴克","lon":"121.4833878","lat":"31.29106854","flow":"204","consume":"42","class":"咖啡厅","id":"1030500176"},
				{"range":"5","name":"星巴克","lon":"121.4950648","lat":"31.26247954","flow":"498","consume":"35","class":"咖啡厅","id":"1030500177"},
				{"range":"5","name":"摩登天空精酿啤酒MODERNSKYBRE...","lon":"121.4949618","lat":"31.26608954","flow":"12","consume":"-","class":"咖啡厅","id":"1030500178"},
				{"range":"5","name":"星巴克","lon":"121.4933518","lat":"31.26683454","flow":"175","consume":"38","class":"咖啡厅","id":"1030500179"},
				{"range":"5","name":"太平洋咖啡","lon":"121.4949618","lat":"31.26608954","flow":"96","consume":"41","class":"咖啡厅","id":"1030500180"},
				{"range":"5","name":"星巴克","lon":"121.5033158","lat":"31.26481754","flow":"34","consume":"37","class":"咖啡厅","id":"1030500181"},